<?xml version="1.0" encoding="ISO-8859-1"?>
<kml xmlns="http://earth.google.com/kml/2.0"><Folder><Placemark><name>Rio Jara 2a - Tarifa (01/01-31/12) &gt;+34956680570</name><Point><coordinates>-5.6301,36.04245,0</coordinates></Point></Placemark><Placemark><name>Tarifa 2a - Tarifa (01/01-31/12) &gt;+34956684778 -CCpg685</name><Point><coordinates>-5.64953,36.0547,0</coordinates></Point></Placemark><Placemark><name>Torre de la Pena I 2a - Tarifa (01/01-31/12) &gt;+34956684903</name><Point><coordinates>-5.65955,36.05672,0</coordinates></Point></Placemark><Placemark><name>Valdevaqueros - Tarifa (01/01-31/12) &gt;+34956684174 -CCA</name><Point><coordinates>-5.6808,36.06903,0</coordinates></Point></Placemark><Placemark><name>Jardin de las Dunas 2a - Tarifa (01/01-31/12) &gt;+34956689101</name><Point><coordinates>-5.69312,36.07038,0</coordinates></Point></Placemark><Placemark><name>Paloma 2a - Tarifa (01/01-31/12) &gt;+34956684203</name><Point><coordinates>-5.6932,36.07624,0</coordinates></Point></Placemark><Placemark><name>Bahia De La Plata - Zahara De Los Atunes &gt;+34956439040</name><Point><coordinates>-5.8355,36.1233,0</coordinates></Point></Placemark><Placemark><name>Camaleon - Canos de Meca [&lt;51] &gt;+34956437154</name><Point><coordinates>-6.01381,36.18809,0</coordinates></Point></Placemark><Placemark><name>Faro De Trafalgar - Barbate &gt;+34956437017</name><Point><coordinates>-6.02663,36.19018,0</coordinates></Point></Placemark><Placemark><name>SurEuropa 3a - La Linea (08/01-21/12) &gt;+34956643587</name><Point><coordinates>-5.3348,36.19174,0</coordinates></Point></Placemark><Placemark><name>Pinar San Jose - Canos de Meca (01/01-31/12) &gt;+34956437030 -CCA</name><Point><coordinates>-6.03494,36.20074,0</coordinates></Point></Placemark><Placemark><name>Canos De Meca-Barbate - Zahora (01/04-15/10) &gt;+34956437120</name><Point><coordinates>-6.0357,36.20166,0</coordinates></Point></Placemark><Placemark><name>El Palmar   - Vejer De La Frontera (01/01-31/12) &gt;+34956232161 -CCA</name><Point><coordinates>-6.05949,36.23401,0</coordinates></Point></Placemark><Placemark><name>La Casita 2a - San Roque (01/01-31/12) &gt;+34956780031</name><Point><coordinates>-5.33832,36.25063,0</coordinates></Point></Placemark><Placemark><name>Vejer - Vejer De La Frontera &gt;+34956450098</name><Point><coordinates>-5.93665,36.25301,0</coordinates></Point></Placemark><Placemark><name>Los Molinos - Vejer De La Frontera &gt;+34956450988</name><Point><coordinates>-5.97771,36.27148,0</coordinates></Point></Placemark><Placemark><name>Los Eucaliptos - Conil De La Frontera (11/04-30/09) &gt;+34956441272 -CCA</name><Point><coordinates>-6.09123,36.28693,0</coordinates></Point></Placemark><Placemark><name>La Rosaleda - Conil De La Frontera (01/01-31/12) &gt;+34956443327 -CCA</name><Point><coordinates>-6.0953,36.29325,0</coordinates></Point></Placemark><Placemark><name>Fuente Del Gallo - Conil De La Frontera &gt;+34956440137</name><Point><coordinates>-6.10988,36.29654,0</coordinates></Point></Placemark><Placemark><name>Cala Del Aceite - Conil De La Frontera &gt;+34956442950</name><Point><coordinates>-6.12989,36.29974,0</coordinates></Point></Placemark><Placemark><name>El Faro - Conil De La Frontera &gt;+34956444096</name><Point><coordinates>-6.12589,36.30332,0</coordinates></Point></Placemark><Placemark><name>Roche - Conil De La Frontera (01/01-31/12) &gt;+34956442624 -CCA</name><Point><coordinates>-6.11268,36.31089,0</coordinates></Point></Placemark><Placemark><name>Tula - Conil De La Frontera &gt;+34956445500</name><Point><coordinates>-6.09222,36.31329,0</coordinates></Point></Placemark><Placemark><name>La Bella Vista - Manilva &gt;+34952890020</name><Point><coordinates>-5.2365,36.34621,0</coordinates></Point></Placemark><Placemark><name>La Rana Verde - Chiclana De La Frontera &gt;+34956494348</name><Point><coordinates>-6.15663,36.39449,0</coordinates></Point></Placemark><Placemark><name>Los Alcornocales - Jimena De La Frontera &gt;+34956640060</name><Point><coordinates>-5.45996,36.44294,0</coordinates></Point></Placemark><Placemark><name>Parque Tropical 2a - Estepona (01/01-31/12) &gt;+34952793618 -CCA</name><Point><coordinates>-5.08087,36.45409,0</coordinates></Point></Placemark><Placemark><name>Cortijo Medina Sidonia - Medina Sidonia &gt;+34670589907</name><Point><coordinates>-5.92128,36.46157,0</coordinates></Point></Placemark><Placemark><name>Los Gazules - Alcala De Los Gazules (01/01-31/12) &gt;+34956420486 -CCA</name><Point><coordinates>-5.66489,36.46398,0</coordinates></Point></Placemark><Placemark><name>Cabopino 2a - Marbella (01/01-31/12) &gt;+34952834373 -CCpg683-CCA</name><Point><coordinates>-4.74298,36.4888,0</coordinates></Point></Placemark><Placemark><name>Los Jarales 2a - Mijas Costa (01/01-31/12) &gt;+34952930003</name><Point><coordinates>-4.71849,36.48939,0</coordinates></Point></Placemark><Placemark><name>Marbella Playa 1a - Marbella (01/01-31/12) &gt;+34952833998</name><Point><coordinates>-4.76345,36.49142,0</coordinates></Point></Placemark><Placemark><name>La Buganvilla 2a - Marbella (01/01-31/12) &gt;+34952831973 -CCA</name><Point><coordinates>-4.80421,36.50259,0</coordinates></Point></Placemark><Placemark><name>Fuengirola 2a - Fuengirola (01/01-31/12) &gt;+34952474108</name><Point><coordinates>-4.6307,36.52078,0</coordinates></Point></Placemark><Placemark><name>La Rosaleda 2a - Fuengirola (01/01-31/12) &gt;+34952460191</name><Point><coordinates>-4.62115,36.55918,0</coordinates></Point></Placemark><Placemark><name>Salitre - Algatocin &gt;+34952117005</name><Point><coordinates>-5.2988,36.5789,0</coordinates></Point></Placemark><Placemark><name>Playa las Dunas 1a - El Puerto de S. Maria (01/01-31/12) &gt;+34956872210 -CCA</name><Point><coordinates>-6.24071,36.58728,0</coordinates></Point></Placemark><Placemark><name>Punta Candor - Rota &gt;+34956813303</name><Point><coordinates>-6.39129,36.63882,0</coordinates></Point></Placemark><Placemark><name>Torremolinos 2a - Torremolinos (01/01-31/12) &gt;+34952382602</name><Point><coordinates>-4.48874,36.64659,0</coordinates></Point></Placemark><Placemark><name>Jimera De Libar - Jimera De Libar &gt;+34952180102</name><Point><coordinates>-5.28872,36.65548,0</coordinates></Point></Placemark><Placemark><name>Morales 2a - Alhaurin De La Torre (01/01-31/12) &gt;+34922410283</name><Point><coordinates>-4.60867,36.65721,0</coordinates></Point></Placemark><Placemark><name>Y Playa - San Jose del Valle &gt;+34856030070</name><Point><coordinates>-5.7866,36.66138,0</coordinates></Point></Placemark><Placemark><name>Conejeras - Parauta &gt;+34619180012</name><Point><coordinates>-5.09067,36.66318,0</coordinates></Point></Placemark><Placemark><name>Playa Aguadulce - Rota &gt;+34956847078</name><Point><coordinates>-6.40621,36.67097,0</coordinates></Point></Placemark><Placemark><name>Don Cactus 1a - Carchuna Motril (01/01-31/12) &gt;+34958623109 -CCA</name><Point><coordinates>-3.44327,36.69592,0</coordinates></Point></Placemark><Placemark><name>Pinar De Chipiona - Chipiona &gt;+34956372321</name><Point><coordinates>-6.42276,36.71456,0</coordinates></Point></Placemark><Placemark><name>Playa Granada 2a - Motril (01/01-31/12) &gt;+34958822716</name><Point><coordinates>-3.5474,36.7174,0</coordinates></Point></Placemark><Placemark><name>Playa de Poniente 2a - Motril (01/01-31/12) &gt;+34958820303 -CCA</name><Point><coordinates>-3.54618,36.71834,0</coordinates></Point></Placemark><Placemark><name>Valle Niza Playa 2a - Benajarafe (01/01-31/12) &gt;+34952513181 -CCpg682-CCA</name><Point><coordinates>-4.16467,36.7197,0</coordinates></Point></Placemark><Placemark><name>Huerta Romero 2a - Castell de Ferro (01/01-31/12) &gt;+34958656001</name><Point><coordinates>-3.36128,36.72094,0</coordinates></Point></Placemark><Placemark><name>El Sur - Ronda &gt;+34952875939</name><Point><coordinates>-5.17176,36.72129,0</coordinates></Point></Placemark><Placemark><name>Almayate Costa 1a - Almayate (15/03-30/09) &gt;+34952556289 -CCA</name><Point><coordinates>-4.13533,36.72528,0</coordinates></Point></Placemark><Placemark><name>Naturist - Almanat - Almayate (Malaga) (01/01-31/12) &gt;+34952556462 -CCA</name><Point><coordinates>-4.11327,36.72673,0</coordinates></Point></Placemark><Placemark><name>Laguna Playa 1a - Torre del Mar (01/01-31/12) &gt;+34952540631 -CCA</name><Point><coordinates>-4.10254,36.7296,0</coordinates></Point></Placemark><Placemark><name>Torre del Mar 2a - Torre del Mar (01/01-31/12) &gt;+34952540224</name><Point><coordinates>-4.0988,36.73356,0</coordinates></Point></Placemark><Placemark><name>Pinsapo Azul - Yunquera &gt;+34952482754</name><Point><coordinates>-4.92703,36.73588,0</coordinates></Point></Placemark><Placemark><name>Carambolo 3a - Almunecar (01/01-31/12) &gt;+34958630322</name><Point><coordinates>-3.67797,36.73801,0</coordinates></Point></Placemark><Placemark><name>El Pino 2a - Torrox Costa (01/01-31/12) &gt;+34952530006 -CCA</name><Point><coordinates>-3.94964,36.73933,0</coordinates></Point></Placemark><Placemark><name>La Herradura 2a - La Herradura (01/04-20/10) &gt;+34958640634</name><Point><coordinates>-3.75343,36.73966,0</coordinates></Point></Placemark><Placemark><name>Castillo de Banos 2a - La Mamola (01/01-31/12) &gt;+34958829528 -CCA</name><Point><coordinates>-3.30129,36.74079,0</coordinates></Point></Placemark><Placemark><name>La Habana 3a - Adra (01/01-31/12) &gt;+34619454134</name><Point><coordinates>-2.96499,36.74306,0</coordinates></Point></Placemark><Placemark><name>Las Vegas - Adra &gt;+34950162228</name><Point><coordinates>-2.96502,36.74313,0</coordinates></Point></Placemark><Placemark><name>La Torrecilla - El Bosque &gt;+34956716095</name><Point><coordinates>-5.5051,36.7496,0</coordinates></Point></Placemark><Placemark><name>Lago De Arcos - Arcos De La Frontera &gt;+34956708333</name><Point><coordinates>-5.78487,36.75741,0</coordinates></Point></Placemark><Placemark><name>Tajo Rodillo - Grazalema &gt;+34956132418</name><Point><coordinates>-5.37372,36.75908,0</coordinates></Point></Placemark><Placemark><name>Nerja 2a - Nerja [&lt;51] (01/01-30/09) &gt;+34952529714</name><Point><coordinates>-3.83478,36.76048,0</coordinates></Point></Placemark><Placemark><name>Tau - San Jose (23/03-30/09) &gt;+34950380166</name><Point><coordinates>-2.10539,36.76769,0</coordinates></Point></Placemark><Placemark><name>Rural Loma Taivilla - Casarabonela [&lt;51] &gt;+34670567607</name><Point><coordinates>-4.83737,36.76862,0</coordinates></Point></Placemark><Placemark><name>Los Linares - Benamahoma [&lt;51] &gt;+34956716275</name><Point><coordinates>-5.46043,36.76898,0</coordinates></Point></Placemark><Placemark><name>El Cortijo - Ronda &gt;+34952870746</name><Point><coordinates>-5.11722,36.78269,0</coordinates></Point></Placemark><Placemark><name>Iznate 2a - Iznate (01/01-31/12) &gt;+34952535613</name><Point><coordinates>-4.17461,36.78446,0</coordinates></Point></Placemark><Placemark><name>El Abogao - Ronda &gt;+34952875844</name><Point><coordinates>-5.11245,36.78676,0</coordinates></Point></Placemark><Placemark><name>Roquetas 2a - Roquetas de Mar (01/01-31/12) &gt;+34950343809 -CCA</name><Point><coordinates>-2.59095,36.79771,0</coordinates></Point></Placemark><Placemark><name>Cabo de Gata 2a - Cabo de Gata (01/01-31/12) &gt;+34950160443 -CCA</name><Point><coordinates>-2.2445,36.80206,0</coordinates></Point></Placemark><Placemark><name>Los Escullos - Nijar-Almeria (01/01-31/12) &gt;+34950389811 -CCpg679-CCA</name><Point><coordinates>-2.07765,36.80284,0</coordinates></Point></Placemark><Placemark><name>La Garrofa 2a - Almeria (01/01-31/12) &gt;+34950235770 -CCA</name><Point><coordinates>-2.51634,36.82633,0</coordinates></Point></Placemark><Placemark><name>Nautico La Caleta - Las Negras &gt;+34950525237</name><Point><coordinates>-2.00663,36.87251,0</coordinates></Point></Placemark><Placemark><name>Presa La Vinuela - Vinuela (01/01-31/12) &gt;+34952554562 -CCpg681</name><Point><coordinates>-4.18502,36.87379,0</coordinates></Point></Placemark><Placemark><name>Orgiva - Orgiva [&lt;51] (01/01-31/12) &gt;+34958784307</name><Point><coordinates>-3.41766,36.88702,0</coordinates></Point></Placemark><Placemark><name>Puerta de la Alpujarra - Orgiva &gt;+34958784450</name><Point><coordinates>-3.4388,36.90421,0</coordinates></Point></Placemark><Placemark><name>El Chorro - Alora &gt;+34952495244</name><Point><coordinates>-4.76126,36.91098,0</coordinates></Point></Placemark><Placemark><name>Parque Ardales - Ardales &gt;+34951264924</name><Point><coordinates>-4.80387,36.91972,0</coordinates></Point></Placemark><Placemark><name>Balcon De Pitres - Pitres [&lt;51] &gt;+34958766111</name><Point><coordinates>-3.33268,36.93193,0</coordinates></Point></Placemark><Placemark><name>Pueblo Blanco - Olvera (01/01-31/12) &gt;+34956130033 -CCpg684-CCA</name><Point><coordinates>-5.2169,36.93887,0</coordinates></Point></Placemark><Placemark><name>Puente Colgante - Fondon &gt;+34950514291</name><Point><coordinates>-2.85882,36.98488,0</coordinates></Point></Placemark><Placemark><name>El Torcal - Antequera &gt;+34952111608</name><Point><coordinates>-4.53227,36.98615,0</coordinates></Point></Placemark><Placemark><name>Trevelez - Trevelez [&lt;51] &gt;+34958858735</name><Point><coordinates>-3.27072,36.99206,0</coordinates></Point></Placemark><Placemark><name>Los Bermejales - Arenas del Rey &gt;+34958359190</name><Point><coordinates>-3.87954,36.99397,0</coordinates></Point></Placemark><Placemark><name>Cortijo la Molineta - Laujar de Andarex [&lt;51] &gt;+34950514315</name><Point><coordinates>-2.88634,36.99965,0</coordinates></Point></Placemark><Placemark><name>Alpujarras - Laroles &gt;+34958760231</name><Point><coordinates>-3.01211,37.0119,0</coordinates></Point></Placemark><Placemark><name>Rocio Playa - Matalascanas &gt;+34959430238</name><Point><coordinates>-6.57492,37.01352,0</coordinates></Point></Placemark><Placemark><name>El Penon - Algamitas &gt;+34955855300</name><Point><coordinates>-5.17466,37.0195,0</coordinates></Point></Placemark><Placemark><name>Sopalmo - Mojacar [&lt;51] &gt;+34950478413</name><Point><coordinates>-1.86868,37.0654,0</coordinates></Point></Placemark><Placemark><name>Suspiro Del Moro - Otura (01/01-31/12) &gt;+34958555411 -CCA</name><Point><coordinates>-3.65187,37.06864,0</coordinates></Point></Placemark><Placemark><name>Rural - Moncarapacho [&lt;51] (01/01-31/12) &gt;+351289798002</name><Point><coordinates>-7.76496,37.08314,0</coordinates></Point></Placemark><Placemark><name>Cueva Negra - Mojacar &gt;+34950475855</name><Point><coordinates>-1.85658,37.08892,0</coordinates></Point></Placemark><Placemark><name>Donana Playa - Mazagon &gt;+34959536281</name><Point><coordinates>-6.72603,37.09962,0</coordinates></Point></Placemark><Placemark><name>La Sierrecilla - Humilladero (01/01-31/12) &gt;+34951199090 -CCA</name><Point><coordinates>-4.69619,37.10763,0</coordinates></Point></Placemark><Placemark><name>Fontanilla Playa - Mazagon &gt;+34959536227</name><Point><coordinates>-6.78594,37.11988,0</coordinates></Point></Placemark><Placemark><name>Reina Isabel - La Zubia (01/01-31/12) &gt;+34958590041 -CCA</name><Point><coordinates>-3.58602,37.1246,0</coordinates></Point></Placemark><Placemark><name>Playa De Mazagon - Mazagon &gt;+34959376208</name><Point><coordinates>-6.79863,37.1249,0</coordinates></Point></Placemark><Placemark><name>El Cantal De Mojacar - Mojacar &gt;+34950478204</name><Point><coordinates>-1.83244,37.126,0</coordinates></Point></Placemark><Placemark><name>Rural La Laguna - Fuente De Piedra [&lt;51] &gt;+34952735294</name><Point><coordinates>-4.73327,37.12899,0</coordinates></Point></Placemark><Placemark><name>Ruta Del Purche - Monachil &gt;+34958340408</name><Point><coordinates>-3.49221,37.1383,0</coordinates></Point></Placemark><Placemark><name>El Quinto 2a - Mojacar (01/01-31/12) &gt;+34950478704</name><Point><coordinates>-1.85934,37.14085,0</coordinates></Point></Placemark><Placemark><name>La Aldea - El Rocio (01/01-31/12) &gt;+34959442677 -CCA</name><Point><coordinates>-6.49154,37.14176,0</coordinates></Point></Placemark><Placemark><name>Cabanas de Guejar Sierra - Guejar Sierra &gt;+34958484201</name><Point><coordinates>-3.42808,37.15519,0</coordinates></Point></Placemark><Placemark><name>Las Lomas - Guejar Sierra (01/01-31/12) &gt;+34958484742 -CCA</name><Point><coordinates>-3.45388,37.16073,0</coordinates></Point></Placemark><Placemark><name>Cortijo Balderas - Guejar Sierra [&lt;51] &gt;+34958340550</name><Point><coordinates>-3.39578,37.16909,0</coordinates></Point></Placemark><Placemark><name>La Lomilla - Jerez Del Marquesado &gt;+34958672222</name><Point><coordinates>-3.17166,37.17055,0</coordinates></Point></Placemark><Placemark><name>Los Gallardos 2a - Los Gallardos (01/01-31/12) &gt;+34950528324</name><Point><coordinates>-1.92399,37.18441,0</coordinates></Point></Placemark><Placemark><name>Maria Eugenia - Granada [&lt;51] &gt;+34958200606</name><Point><coordinates>-3.65469,37.19239,0</coordinates></Point></Placemark><Placemark><name>Sierra Nevada - Granada &gt;+34958150062</name><Point><coordinates>-3.61169,37.1982,0</coordinates></Point></Placemark><Placemark><name>Giralda 1a - Isla Cristina (01/01-31/12) &gt;+34959343318 -CCA</name><Point><coordinates>-7.3014,37.2001,0</coordinates></Point></Placemark><Placemark><name>Playa Taray 2a - Isla Cristina (01/01-31/12) &gt;+34959341102</name><Point><coordinates>-7.26522,37.20492,0</coordinates></Point></Placemark><Placemark><name>Playa La Bota - Punta Umbria &gt;+34959314537</name><Point><coordinates>-7.02345,37.2078,0</coordinates></Point></Placemark><Placemark><name>Luz 2a - Isla Cristina (01/01-31/12) &gt;+34959341142</name><Point><coordinates>-7.2522,37.20808,0</coordinates></Point></Placemark><Placemark><name>Antilla 2a - La Antilla (01/01-31/12) &gt;+34959480829</name><Point><coordinates>-7.19472,37.2153,0</coordinates></Point></Placemark><Placemark><name>Alto de Vinuelas - Beas de Granada [&lt;51] (01/01-31/12) &gt;+34958546023 -CCpg680-CCA</name><Point><coordinates>-3.48838,37.22469,0</coordinates></Point></Placemark><Placemark><name>Cuevas Mar 1a - Cuevas del Almanzora (01/01-31/12) &gt;+34950467382</name><Point><coordinates>-1.79917,37.23779,0</coordinates></Point></Placemark><Placemark><name>Granada - Peligros &gt;+34958340548</name><Point><coordinates>-3.63158,37.24091,0</coordinates></Point></Placemark><Placemark><name>El Arrayan - Hinojos &gt;+34959027502</name><Point><coordinates>-6.38174,37.24319,0</coordinates></Point></Placemark><Placemark><name>Los Canos - Benameji &gt;+34957530886</name><Point><coordinates>-4.53415,37.25853,0</coordinates></Point></Placemark><Placemark><name>Las Vegas 2a - Aljaraque (01/01-31/12) &gt;+34959318141</name><Point><coordinates>-7.00899,37.26447,0</coordinates></Point></Placemark><Placemark><name>Villsom 2a - Dos Hermanas (08/01-23/12) &gt;+34954720828</name><Point><coordinates>-5.93648,37.27759,0</coordinates></Point></Placemark><Placemark><name>Dehesa Nueva 3a - Aznalcazar (01/01-31/12) &gt;+34955750981</name><Point><coordinates>-6.23519,37.2778,0</coordinates></Point></Placemark><Placemark><name>Las Menas - Seron &gt;+34950526011</name><Point><coordinates>-2.50939,37.28303,0</coordinates></Point></Placemark><Placemark><name>Club de Campo 2a - Dos Hermanas (01/01-31/12) &gt;+34954720250</name><Point><coordinates>-5.9343,37.29016,0</coordinates></Point></Placemark><Placemark><name>La Hierbabuena 3a - Cuevas De Almanzora &gt;+34950396908</name><Point><coordinates>-1.77732,37.30065,0</coordinates></Point></Placemark><Placemark><name>Oromana - Alcala De Guadaira &gt;+34955683257</name><Point><coordinates>-5.8436,37.32335,0</coordinates></Point></Placemark><Placemark><name>Cortijo Los Villares - Priego de Cordoba [&lt;51] &gt;+34957704054</name><Point><coordinates>-4.22138,37.35653,0</coordinates></Point></Placemark><Placemark><name>Calarreona - Aguilas &gt;+34968413704</name><Point><coordinates>-1.62293,37.38479,0</coordinates></Point></Placemark><Placemark><name>Bellavista - Aguilas (01/01-31/12) &gt;+34968449151 -CCA</name><Point><coordinates>-1.60986,37.39152,0</coordinates></Point></Placemark><Placemark><name>Aguilas - Aguilas &gt;+34968419205</name><Point><coordinates>-1.5508,37.42648,0</coordinates></Point></Placemark><Placemark><name>Las Palomas - Carcabuey [&lt;51] &gt;+34957720002</name><Point><coordinates>-4.25911,37.46882,0</coordinates></Point></Placemark><Placemark><name>Complejo Los Molinos - Sanlucar De Guadiana &gt;+34959388516</name><Point><coordinates>-7.46552,37.47121,0</coordinates></Point></Placemark><Placemark><name>La Cabanuela-Freila &gt;+34958063108</name><Point><coordinates>-2.91152,37.55762,0</coordinates></Point></Placemark><Placemark><name>Playa De Mazarron - Mazarron (01/01-31/12) &gt;+34968150660 -CCA</name><Point><coordinates>-1.30418,37.563,0</coordinates></Point></Placemark><Placemark><name>Los Angeles 3a - Puerto Lumbreras [&lt;51] (01/01-31/12) &gt;+34968402782</name><Point><coordinates>-1.79537,37.57475,0</coordinates></Point></Placemark><Placemark><name>Los Delfines - Puerto de Mazarron &gt;+34968594527</name><Point><coordinates>-1.22857,37.57718,0</coordinates></Point></Placemark><Placemark><name>Los Madriles - Isla Plana (01/01-31/12) &gt;+34968152151 -CCA</name><Point><coordinates>-1.19558,37.57979,0</coordinates></Point></Placemark><Placemark><name>Naturist - El Portus - Cartagena (01/01-31/12) &gt;+34968152151 -CCA</name><Point><coordinates>-1.06747,37.58629,0</coordinates></Point></Placemark><Placemark><name>Las Torres - Puerto de Mazarron (01/01-31/12) &gt;+34968595225 -CCA</name><Point><coordinates>-1.22916,37.58986,0</coordinates></Point></Placemark><Placemark><name>La Campina - Santaella [&lt;51] (01/01-31/12) &gt;+34957315303</name><Point><coordinates>-4.85943,37.62265,0</coordinates></Point></Placemark><Placemark><name>La Manga - La Manga del Mar Menor (Murcia) (01/01-31/12) &gt;+34968563019 -CCpg677-CCA</name><Point><coordinates>-0.74366,37.62462,0</coordinates></Point></Placemark><Placemark><name>La Torrecilla - Lorca &gt;+34968442196</name><Point><coordinates>-1.74913,37.62858,0</coordinates></Point></Placemark><Placemark><name>Naturist - El Zorro - Zarzalico [&lt;51] (01/01-31/12) &gt;+34666295544</name><Point><coordinates>-1.94825,37.64301,0</coordinates></Point></Placemark><Placemark><name>La Estacion - Cabra de Santo Cristo [&lt;51] &gt;+34953962121</name><Point><coordinates>-3.25971,37.65778,0</coordinates></Point></Placemark><Placemark><name>El Pinar del Rey - Velez Blanco &gt;+34649901680 -CCA</name><Point><coordinates>-2.09482,37.68081,0</coordinates></Point></Placemark><Placemark><name>Carlos III 2a - La Carlota (01/01-31/12) &gt;+34957300338</name><Point><coordinates>-4.9193,37.68306,0</coordinates></Point></Placemark><Placemark><name>Ciudad de Nerva - Nerva &gt;+34959581457</name><Point><coordinates>-6.54529,37.68843,0</coordinates></Point></Placemark><Placemark><name>Sierra Brava 2a - El Ronquillo (01/01-31/12) &gt;+34954131165</name><Point><coordinates>-6.12243,37.70796,0</coordinates></Point></Placemark><Placemark><name>Sierra De Maria - Maria (01/01-31/12) &gt;+34950167045 -CCpg678-CCA</name><Point><coordinates>-2.23622,37.70887,0</coordinates></Point></Placemark><Placemark><name>El Lago - Castillejar &gt;+34958744102</name><Point><coordinates>-2.6616,37.71197,0</coordinates></Point></Placemark><Placemark><name>Totana 2a - Totana (01/01-31/12) &gt;+34968424864</name><Point><coordinates>-1.51713,37.74812,0</coordinates></Point></Placemark><Placemark><name>La Bolera - Pozo Alcon &gt;+34953739005</name><Point><coordinates>-2.91231,37.75982,0</coordinates></Point></Placemark><Placemark><name>Mar Menor - San Javier &gt;+34968570133</name><Point><coordinates>-0.815,37.7703,0</coordinates></Point></Placemark><Placemark><name>Castril - Castril &gt;+34958747428</name><Point><coordinates>-2.78579,37.79543,0</coordinates></Point></Placemark><Placemark><name>La Encina - San Javier &gt;+34968191080</name><Point><coordinates>-0.84553,37.8068,0</coordinates></Point></Placemark><Placemark><name>El Ayozar - Albanchez De Magina &gt;+34953357463</name><Point><coordinates>-3.46124,37.81352,0</coordinates></Point></Placemark><Placemark><name>La Brena - Almodovar Del Rio &gt;+34957338333</name><Point><coordinates>-5.06237,37.84008,0</coordinates></Point></Placemark><Placemark><name>Lo Monte - Pilar de la Horadada (01/01-31/12) &gt;+34966766782 -CCA</name><Point><coordinates>-0.76551,37.87926,0</coordinates></Point></Placemark><Placemark><name>La Molinilla - Linares de la Sierra &gt;+34959463738</name><Point><coordinates>-6.62167,37.88064,0</coordinates></Point></Placemark><Placemark><name>Aracena-Sierra - Aracena &gt;+34959501005</name><Point><coordinates>-6.51927,37.88117,0</coordinates></Point></Placemark><Placemark><name>Sierra Espuna 2a - Alhama de Murcia [&lt;51] (01/01-31/12) &gt;+34968668038 -CCA</name><Point><coordinates>-1.49324,37.8882,0</coordinates></Point></Placemark><Placemark><name>El Brillante 1a - Cordoba (01/01-31/12) &gt;+34957403836</name><Point><coordinates>-4.78756,37.90053,0</coordinates></Point></Placemark><Placemark><name>El Madronal - Fuenteheridos &gt;+34669434637</name><Point><coordinates>-6.67208,37.90329,0</coordinates></Point></Placemark><Placemark><name>San Isicio - Cazorla &gt;+34953721280</name><Point><coordinates>-3.01382,37.90513,0</coordinates></Point></Placemark><Placemark><name>Puente De Las Herrerias - Cazorla &gt;+34953727090</name><Point><coordinates>-2.93567,37.90586,0</coordinates></Point></Placemark><Placemark><name>Fundicion del Hueznar - Cazalla de la Sierra &gt;+34955954117</name><Point><coordinates>-5.6851,37.93888,0</coordinates></Point></Placemark><Placemark><name>La Campana - Torrevieja &gt;+34965712152</name><Point><coordinates>-0.71473,37.94819,0</coordinates></Point></Placemark><Placemark><name>Los Enebros - La Iruela &gt;+34953727110</name><Point><coordinates>-2.92083,37.95047,0</coordinates></Point></Placemark><Placemark><name>La Albolafia 2a - Villafranca de Cordoba (01/03-30/11) &gt;+34957190835 -CCA</name><Point><coordinates>-4.55394,37.95356,0</coordinates></Point></Placemark><Placemark><name>La Paz 1a - Sangonera la Seca (01/01-31/12) &gt;+34968801337</name><Point><coordinates>-1.26035,37.954,0</coordinates></Point></Placemark><Placemark><name>Llano De La Torre - Aroche [&lt;51] &gt;+34959140648</name><Point><coordinates>-6.94778,37.95931,0</coordinates></Point></Placemark><Placemark><name>Los Villares - Cordoba &gt;+34957330145</name><Point><coordinates>-4.81149,37.96005,0</coordinates></Point></Placemark><Placemark><name>Batan De Las Monjas - San Nicolas Del Puerto &gt;+34955886598</name><Point><coordinates>-5.66524,37.97302,0</coordinates></Point></Placemark><Placemark><name>Florantille - Torrevieja &gt;+34965720456</name><Point><coordinates>-0.75137,37.97492,0</coordinates></Point></Placemark><Placemark><name>El Martinete - San Nicolas Del Puerto &gt;+34955886533</name><Point><coordinates>-5.6714,37.99304,0</coordinates></Point></Placemark><Placemark><name>Complejo La Noria - Ubeda &gt;+34639836435</name><Point><coordinates>-3.39724,38.03199,0</coordinates></Point></Placemark><Placemark><name>La Rafa - Bullas &gt;+34968654666</name><Point><coordinates>-1.67021,38.03673,0</coordinates></Point></Placemark><Placemark><name>Chopera De Coto Rios - Coto Rios &gt;+34953713005</name><Point><coordinates>-2.85128,38.04793,0</coordinates></Point></Placemark><Placemark><name>Pedrera - Bigastro (01/01-31/12) &gt;+34966183020 -CCA</name><Point><coordinates>-0.89837,38.05124,0</coordinates></Point></Placemark><Placemark><name>Llanos De Arance - Coto Rios &gt;+34953713139</name><Point><coordinates>-2.83996,38.0527,0</coordinates></Point></Placemark><Placemark><name>Tendudia 1a - Monesterio (15/02-15/12) &gt;+34924143146</name><Point><coordinates>-6.23967,38.05295,0</coordinates></Point></Placemark><Placemark><name>Fuente De La Pascuala - Coto Rios &gt;+34953713028</name><Point><coordinates>-2.83427,38.0583,0</coordinates></Point></Placemark><Placemark><name>Palm Mar - Guardamar Del Segura &gt;+34965728856</name><Point><coordinates>-0.65281,38.07298,0</coordinates></Point></Placemark><Placemark><name>Llanos de Soto - Mogon [&lt;51] &gt;+34953449009</name><Point><coordinates>-3.02827,38.07875,0</coordinates></Point></Placemark><Placemark><name>Puente Nuevo - Villaviciosa de Cordoba &gt;+34957360727</name><Point><coordinates>-4.92754,38.08121,0</coordinates></Point></Placemark><Placemark><name>Marjal - Guardamar Del Segura (01/01-31/12) &gt;+34966727070 -CCA</name><Point><coordinates>-0.65487,38.10926,0</coordinates></Point></Placemark><Placemark><name>Internacional La Marina - La Marina &gt;+34965419200</name><Point><coordinates>-0.64959,38.12974,0</coordinates></Point></Placemark><Placemark><name>Las Nogueras de Nerpio - Nerpio &gt;+34967575115</name><Point><coordinates>-2.30525,38.14285,0</coordinates></Point></Placemark><Placemark><name>La Escuera - San Fulgencio [&lt;51] &gt;+34647847541</name><Point><coordinates>-0.66927,38.14394,0</coordinates></Point></Placemark><Placemark><name>Municipal El Pinet - Elx &gt;+34965419148</name><Point><coordinates>-0.63116,38.15094,0</coordinates></Point></Placemark><Placemark><name>Marjal Costa Blanca Eco - Crevillente (01/01-31/12) &gt;+34965484945 -CCpg676-CCA-BD_ES-H.008</name><Point><coordinates>-0.80983,38.17884,0</coordinates></Point></Placemark><Placemark><name>Montillana - Hornos De Segura &gt;+34953126194</name><Point><coordinates>-2.77333,38.18572,0</coordinates></Point></Placemark><Placemark><name>Bahia De Santa Pola - Santa Pola (01/01-31/12) &gt;+34965411012 -CCA</name><Point><coordinates>-0.56985,38.20059,0</coordinates></Point></Placemark><Placemark><name>Las Palmeras - Banos De Fortuna &gt;+34968686095</name><Point><coordinates>-1.11055,38.20548,0</coordinates></Point></Placemark><Placemark><name>La Fuente - Banos De Fortuna (01/01-31/12) &gt;+34968685125 -CCA</name><Point><coordinates>-1.1072,38.2066,0</coordinates></Point></Placemark><Placemark><name>La Puerta - Moratalla &gt;+34968730008</name><Point><coordinates>-1.9444,38.21217,0</coordinates></Point></Placemark><Placemark><name>Garrote Gordo - Orcera &gt;+34953480295</name><Point><coordinates>-2.61849,38.21768,0</coordinates></Point></Placemark><Placemark><name>Las Palmeras 1a - Crevillente (01/01-31/12) &gt;+34965400188 -CCA</name><Point><coordinates>-0.81177,38.24054,0</coordinates></Point></Placemark><Placemark><name>El Robledo - Segura De La Sierra [&lt;51] &gt;+34953496315</name><Point><coordinates>-2.68638,38.25189,0</coordinates></Point></Placemark><Placemark><name>Campina Sur - Azuaga &gt;+34924144074</name><Point><coordinates>-5.69899,38.25679,0</coordinates></Point></Placemark><Placemark><name>Sombra y Sol 2a - El Altet (01/01-31/12) &gt;+34965688226</name><Point><coordinates>-0.5386,38.265,0</coordinates></Point></Placemark><Placemark><name>Despenaperros 1a - Santa Elena [&lt;51] (01/01-31/12) &gt;+34953664192 -CCA</name><Point><coordinates>-3.53547,38.34339,0</coordinates></Point></Placemark><Placemark><name>Fuente De La Canalica - Siles &gt;+34953490351</name><Point><coordinates>-2.57638,38.34614,0</coordinates></Point></Placemark><Placemark><name>Municipal Ciudad del Ocio - Pozoblanco &gt;+34957132204</name><Point><coordinates>-4.82611,38.34722,0</coordinates></Point></Placemark><Placemark><name>Bochorna - Yeste [&lt;51] &gt;+34967432073</name><Point><coordinates>-2.3575,38.35539,0</coordinates></Point></Placemark><Placemark><name>Rio Tus - Yeste &gt;+34967431293</name><Point><coordinates>-2.43923,38.37238,0</coordinates></Point></Placemark><Placemark><name>Rio Los Molinos - Siles &gt;+34953491003</name><Point><coordinates>-2.58016,38.37537,0</coordinates></Point></Placemark><Placemark><name>El Jardin 2a - El Campello (01/01-31/12) &gt;+34965657580 -CCA</name><Point><coordinates>-0.41521,38.39294,0</coordinates></Point></Placemark><Placemark><name>Bon Sol 2a - El Campello (01/01-31/12) &gt;+34965941383</name><Point><coordinates>-0.40558,38.41325,0</coordinates></Point></Placemark><Placemark><name>Costa Blanca 2a - El Campello (01/01-31/12) &gt;+34965630670 -CCA</name><Point><coordinates>-0.38811,38.43607,0</coordinates></Point></Placemark><Placemark><name>Fuencaliente - Fuencaliente &gt;+34926117216</name><Point><coordinates>-4.32765,38.44899,0</coordinates></Point></Placemark><Placemark><name>Rio Mundo - Mesones (15/03-12/10) &gt;+34967433230 -CCA</name><Point><coordinates>-2.34519,38.48888,0</coordinates></Point></Placemark><Placemark><name>Riopar - Riopar &gt;+34967435340</name><Point><coordinates>-2.43575,38.4959,0</coordinates></Point></Placemark><Placemark><name>El Paraiso 2a - Villajoyosa (01/01-31/12) &gt;+34966850798</name><Point><coordinates>-0.24914,38.50006,0</coordinates></Point></Placemark><Placemark><name>La Fuentezuela - Ayna &gt;+34967584027</name><Point><coordinates>-2.06595,38.5381,0</coordinates></Point></Placemark><Placemark><name>La Torreta 2a - Benidorm (01/01-31/12) &gt;+34965854668</name><Point><coordinates>-0.10335,38.54415,0</coordinates></Point></Placemark><Placemark><name>Villasol 1a - Benidorm (01/01-31/12) &gt;+34965850422 -BD_ES-F.019</name><Point><coordinates>-0.10689,38.54493,0</coordinates></Point></Placemark><Placemark><name>Armanello 2a - Benidorm (01/01-31/12) &gt;+34965853190 -CCA</name><Point><coordinates>-0.11122,38.54783,0</coordinates></Point></Placemark><Placemark><name>El Raco 2a - Benidorm (01/01-31/12) &gt;+34965868552</name><Point><coordinates>-0.09861,38.54853,0</coordinates></Point></Placemark><Placemark><name>Arena Blanca 2a - Benidorm (01/01-31/12) &gt;+34965861889 -CCA</name><Point><coordinates>-0.09649,38.55091,0</coordinates></Point></Placemark><Placemark><name>Benidorm 2a - Benidorm (01/01-31/12) &gt;+34965860011</name><Point><coordinates>-0.09752,38.55286,0</coordinates></Point></Placemark><Placemark><name>Villamar - Benidorm &gt;+34966811255</name><Point><coordinates>-0.09767,38.55566,0</coordinates></Point></Placemark><Placemark><name>Titus 2a - Benidorm (01/01-31/12) &gt;+34966806750</name><Point><coordinates>-0.10225,38.557,0</coordinates></Point></Placemark><Placemark><name>La Sonrisa - Finestrat &gt;+34965878089</name><Point><coordinates>-0.2047,38.55704,0</coordinates></Point></Placemark><Placemark><name>Benisol 2a - Benidorm (01/01-31/12) &gt;+34965851673 -CCA</name><Point><coordinates>-0.09821,38.56005,0</coordinates></Point></Placemark><Placemark><name>Excalibur 1a - Alfaz Del Pi (01/01-31/12) &gt;+34966867139</name><Point><coordinates>-0.08788,38.56515,0</coordinates></Point></Placemark><Placemark><name>Almafra 1a - Benidorm (01/01-31/12) &gt;+34965889075 -CCpg675</name><Point><coordinates>-0.09473,38.5681,0</coordinates></Point></Placemark><Placemark><name>Gwen &amp; Michael - Sax [&lt;51] &gt;+34965474419</name><Point><coordinates>-0.84915,38.56875,0</coordinates></Point></Placemark><Placemark><name>Puig Campana - Finestrat &gt;+34965878584</name><Point><coordinates>-0.18159,38.57058,0</coordinates></Point></Placemark><Placemark><name>Cap Blanch 1a - Altea (01/01-31/12) &gt;+34965845946 -CCA</name><Point><coordinates>-0.06451,38.57764,0</coordinates></Point></Placemark><Placemark><name>Bola - Villena &gt;+34659596867</name><Point><coordinates>-0.93215,38.61895,0</coordinates></Point></Placemark><Placemark><name>Calpemar 1a - Calpe (01/01-31/12) &gt;+34965875576 -CCA</name><Point><coordinates>0.05604,38.64492,0</coordinates></Point></Placemark><Placemark><name>Levante 2a - Calpe (01/01-31/12) &gt;+34965832272</name><Point><coordinates>0.07161,38.64784,0</coordinates></Point></Placemark><Placemark><name>Mediterranneo - Calpe &gt;+34656424477</name><Point><coordinates>0.07006,38.65145,0</coordinates></Point></Placemark><Placemark><name>La Merced 2a - Calpe (01/01-31/12) &gt;+34965830097</name><Point><coordinates>0.06828,38.65428,0</coordinates></Point></Placemark><Placemark><name>Sierra De Penascosa - Penascosa [&lt;51] &gt;+34967382521</name><Point><coordinates>-2.40444,38.67222,0</coordinates></Point></Placemark><Placemark><name>Moraira 1a - Moraira (01/01-31/12) &gt;+34965745249 -CCA</name><Point><coordinates>0.11933,38.68587,0</coordinates></Point></Placemark><Placemark><name>La Cometa 2a - Moraira (01/01-31/12) &gt;+34965745208</name><Point><coordinates>0.12876,38.68886,0</coordinates></Point></Placemark><Placemark><name>Mariola - Bocairent (Valencia) &gt;+34962135160</name><Point><coordinates>-0.54957,38.75332,0</coordinates></Point></Placemark><Placemark><name>El Naranjal - Javea (01/01-31/12) &gt;+34965792989 -CCA</name><Point><coordinates>0.18222,38.77063,0</coordinates></Point></Placemark><Placemark><name>Vall De Laguar - Campell [&lt;51] (01/01-31/12) &gt;+34965577490 -CCA</name><Point><coordinates>-0.10529,38.77672,0</coordinates></Point></Placemark><Placemark><name>Javea - Javea (01/01-31/12) &gt;+34965791070 -CCA</name><Point><coordinates>0.1715,38.78458,0</coordinates></Point></Placemark><Placemark><name>La More - Ontinyent [&lt;51] &gt;+34618406614</name><Point><coordinates>-0.69392,38.79472,0</coordinates></Point></Placemark><Placemark><name>La Vall - Alcala de la Jovada &gt;+34965514333</name><Point><coordinates>-0.25604,38.7949,0</coordinates></Point></Placemark><Placemark><name>Los Pinos 2a - Denia (01/01-31/12) &gt;+34965782698</name><Point><coordinates>0.14686,38.82955,0</coordinates></Point></Placemark><Placemark><name>Tolosa 2a - Denia (01/04-30/09) &gt;+34965787291</name><Point><coordinates>0.13909,38.83203,0</coordinates></Point></Placemark><Placemark><name>Los Llanos 1a - Denia (01/01-31/12) &gt;+34965755188</name><Point><coordinates>-0.01525,38.86875,0</coordinates></Point></Placemark><Placemark><name>Los Patos 2a - Denia (01/01-31/12) &gt;+34965755293</name><Point><coordinates>-0.0202,38.87284,0</coordinates></Point></Placemark><Placemark><name>Sierra Natura - Rugat &gt;+34962814166</name><Point><coordinates>-0.35811,38.87678,0</coordinates></Point></Placemark><Placemark><name>Los Arenales - Almagro &gt;+34606995432</name><Point><coordinates>-3.69615,38.88088,0</coordinates></Point></Placemark><Placemark><name>Rio Mar 2a - Oliva (01/01-31/12) &gt;+34962854097 -CCA</name><Point><coordinates>-0.03901,38.88606,0</coordinates></Point></Placemark><Placemark><name>Pepe 2a - Oliva (01/01-31/12) &gt;+34962857519</name><Point><coordinates>-0.05211,38.89403,0</coordinates></Point></Placemark><Placemark><name>Bon Dia 2a - Oliva (01/04-30/09) &gt;+34962857500</name><Point><coordinates>-0.05333,38.89416,0</coordinates></Point></Placemark><Placemark><name>Ole 1a - Oliva (01/01-31/12) &gt;+34962857517 -CCA</name><Point><coordinates>-0.05348,38.89443,0</coordinates></Point></Placemark><Placemark><name>El Rancho 2a - Oliva (01/06-17/09) &gt;+34962857518</name><Point><coordinates>-0.05607,38.89701,0</coordinates></Point></Placemark><Placemark><name>Eurocamping 2a - Oliva (01/01-31/12) &gt;+34962854098 -CCpg674-CCA-BD_ES-F.011</name><Point><coordinates>-0.06662,38.90535,0</coordinates></Point></Placemark><Placemark><name>Azul 2a - Oliva (01/03-31/10) &gt;+34962854106 -CCA</name><Point><coordinates>-0.06776,38.90736,0</coordinates></Point></Placemark><Placemark><name>Los Carasoles - Enguera &gt;+34962253051</name><Point><coordinates>-0.90277,38.91291,0</coordinates></Point></Placemark><Placemark><name>Sierra Natura - Enguera [&lt;51] &gt;+34962253026</name><Point><coordinates>-0.8491,38.92011,0</coordinates></Point></Placemark><Placemark><name>El Teularet - Enguera &gt;+34962253024</name><Point><coordinates>-0.84044,38.92455,0</coordinates></Point></Placemark><Placemark><name>Kiko Park 1a - Oliva (01/01-31/12) &gt;+34962850905 -CCA</name><Point><coordinates>-0.0973,38.93292,0</coordinates></Point></Placemark><Placemark><name>Merida 2a - Merida (01/01-31/12) &gt;+34924303453</name><Point><coordinates>-6.30488,38.93541,0</coordinates></Point></Placemark><Placemark><name>Montesinos - Ossa De Montiel &gt;+34967377000</name><Point><coordinates>-2.82136,38.93634,0</coordinates></Point></Placemark><Placemark><name>Los Batanes - Ossa De Montiel (01/03-02/11) &gt;+34926699076 -CCA</name><Point><coordinates>-2.84744,38.93717,0</coordinates></Point></Placemark><Placemark><name>Coelius 2a - Miramar (01/01-31/12) &gt;+34962819574</name><Point><coordinates>-0.12998,38.9538,0</coordinates></Point></Placemark><Placemark><name>Cala Bassa - San Jose San Agustin &gt;+34971344599</name><Point><coordinates>1.24208,38.96337,0</coordinates></Point></Placemark><Placemark><name>l'Aventura 2a - Daimus (01/04-25/11) &gt;+34962818330</name><Point><coordinates>-0.15104,38.97368,0</coordinates></Point></Placemark><Placemark><name>La Pinada - Enguera &gt;+34962224503</name><Point><coordinates>-0.68783,38.97396,0</coordinates></Point></Placemark><Placemark><name>Los Molinos - Ruidera [&lt;51] &gt;+34926528089</name><Point><coordinates>-2.88695,38.97471,0</coordinates></Point></Placemark><Placemark><name>l'Alqueria 2a - Gandia (01/01-31/12) &gt;+34962840470 -CCA</name><Point><coordinates>-0.16373,38.9862,0</coordinates></Point></Placemark><Placemark><name>Xativa - Xativa &gt;+34962271462</name><Point><coordinates>-0.50305,38.9901,0</coordinates></Point></Placemark><Placemark><name>Balcon De Orellana - Orellana La Vieja &gt;+34924866400</name><Point><coordinates>-5.52465,38.995,0</coordinates></Point></Placemark><Placemark><name>Es Cana - Santa Eulalia del Rio &gt;+34971332117</name><Point><coordinates>1.57381,39.00386,0</coordinates></Point></Placemark><Placemark><name>La Naranja 2a - Gandia (01/04-30/09) &gt;+34962841616</name><Point><coordinates>-0.17735,39.00456,0</coordinates></Point></Placemark><Placemark><name>Florida - Santa Eulalia del Rio &gt;+34971331698</name><Point><coordinates>1.57963,39.00721,0</coordinates></Point></Placemark><Placemark><name>Albufera De Anna - Anna &gt;+34962210563</name><Point><coordinates>-0.65579,39.00824,0</coordinates></Point></Placemark><Placemark><name>La Falaguera - Barx &gt;+34962807571</name><Point><coordinates>-0.31876,39.02189,0</coordinates></Point></Placemark><Placemark><name>San Vicente 2a - Xeraco (01/01-31/12) &gt;+34962888188</name><Point><coordinates>-0.19788,39.05306,0</coordinates></Point></Placemark><Placemark><name>El 301 2a - Miajadas [&lt;51] (01/01-31/12) &gt;+34927347914</name><Point><coordinates>-6.01333,39.09599,0</coordinates></Point></Placemark><Placemark><name>Puerto Pena - Talarrubias &gt;+34924631411</name><Point><coordinates>-5.18401,39.13596,0</coordinates></Point></Placemark><Placemark><name>Las Jaras - Jarafuel &gt;+34961899082</name><Point><coordinates>-1.07878,39.13968,0</coordinates></Point></Placemark><Placemark><name>Santa Marta 1a - Cullera (17/01-12/12) &gt;+34961721440 -CCA</name><Point><coordinates>-0.24358,39.17729,0</coordinates></Point></Placemark><Placemark><name>Finca La Reina - Almoharin [&lt;51] &gt;+34608914313</name><Point><coordinates>-6.05182,39.18235,0</coordinates></Point></Placemark><Placemark><name>Les Barraquetes - Sueca &gt;+34961760723 -CCA</name><Point><coordinates>-0.26388,39.24188,0</coordinates></Point></Placemark><Placemark><name>Les Palmeres - Sueca &gt;+34961770861</name><Point><coordinates>-0.26541,39.2526,0</coordinates></Point></Placemark><Placemark><name>La Fuente - Casas De Ves &gt;+34967475023</name><Point><coordinates>-1.32814,39.26716,0</coordinates></Point></Placemark><Placemark><name>San Pascual - El Perello &gt;+34961770273</name><Point><coordinates>-0.27775,39.27468,0</coordinates></Point></Placemark><Placemark><name>Castillo al Eman - Benquerencia [&lt;51] &gt;+34638735398</name><Point><coordinates>-6.10027,39.29723,0</coordinates></Point></Placemark><Placemark><name>El Mirador De Cabaneros - Horcajo De Los Montes [&lt;51] (01/01-31/12) &gt;+34926775439 -CCpg635-CCA</name><Point><coordinates>-4.65036,39.32295,0</coordinates></Point></Placemark><Placemark><name>Devesa Gardens - El Saler &gt;+34961611136</name><Point><coordinates>-0.3094,39.32302,0</coordinates></Point></Placemark><Placemark><name>Aguas Claras - Valencia de Alcantara &gt;+34927599099</name><Point><coordinates>-7.24833,39.32571,0</coordinates></Point></Placemark><Placemark><name>El Saler - El Saler &gt;+34961830244</name><Point><coordinates>-0.33177,39.38882,0</coordinates></Point></Placemark><Placemark><name>Coll Vert - Pinedo (15/01-14/12) &gt;+34961830036 -CCA</name><Point><coordinates>-0.33248,39.39642,0</coordinates></Point></Placemark><Placemark><name>Las Villuercas - Guadalupe &gt;+34927367139</name><Point><coordinates>-5.31623,39.44122,0</coordinates></Point></Placemark><Placemark><name>La Celadilla - El Pedernoso &gt;+34967164313</name><Point><coordinates>-2.75398,39.45153,0</coordinates></Point></Placemark><Placemark><name>Kalahari - Venta del Moro &gt;+34963774444</name><Point><coordinates>-1.35882,39.48154,0</coordinates></Point></Placemark><Placemark><name>Ciudad de Caceres 1a - Caceres (01/01-31/12) &gt;+34927233100 -CCA</name><Point><coordinates>-6.41275,39.4886,0</coordinates></Point></Placemark><Placemark><name>Venta De Contreras - Minglanilla &gt;+34962186170</name><Point><coordinates>-1.50772,39.53991,0</coordinates></Point></Placemark><Placemark><name>Kiko Park Rural - Villagordo Del Cabriel (01/01-31/12) &gt;+34962139082 -CCA</name><Point><coordinates>-1.47433,39.55243,0</coordinates></Point></Placemark><Placemark><name>La Brasa 2a - Pobla de Farnals (01/01-31/12) &gt;+34961460388</name><Point><coordinates>-0.29058,39.56457,0</coordinates></Point></Placemark><Placemark><name>Valenciacamperpark - Betera &gt;+34960718095</name><Point><coordinates>-0.44494,39.57958,0</coordinates></Point></Placemark><Placemark><name>Valencia 2a - Puzol (10/03-20/11) &gt;+34961465806</name><Point><coordinates>-0.27123,39.60084,0</coordinates></Point></Placemark><Placemark><name>Puzol 2a - Puzol (15/02-15/12) &gt;+34961421527 -CCA</name><Point><coordinates>-0.26907,39.60548,0</coordinates></Point></Placemark><Placemark><name>Rio Turia - Bugarra [&lt;51] &gt;+34961660242</name><Point><coordinates>-0.78002,39.60576,0</coordinates></Point></Placemark><Placemark><name>Pantapino - Olmedilla De Alarcon &gt;+34969339233</name><Point><coordinates>-2.1004,39.60894,0</coordinates></Point></Placemark><Placemark><name>Pedralba - Pedralba [&lt;51] &gt;+34600676493</name><Point><coordinates>-0.74209,39.61789,0</coordinates></Point></Placemark><Placemark><name>La Milagra - Navahermosa &gt;+34925429036</name><Point><coordinates>-4.48826,39.62132,0</coordinates></Point></Placemark><Placemark><name>Municipal De Mira - Mira [&lt;51] &gt;+34969340001</name><Point><coordinates>-1.43737,39.71438,0</coordinates></Point></Placemark><Placemark><name>Malvarrosa De Corinto - Sagunt &gt;+34962608906</name><Point><coordinates>-0.19321,39.71964,0</coordinates></Point></Placemark><Placemark><name>Sierra Calderona 1a - Estivella (01/01-31/12) &gt;+34962136589</name><Point><coordinates>-0.36003,39.72227,0</coordinates></Point></Placemark><Placemark><name>Almenara Playa 2a - Almenara (01/01-31/12) &gt;+34962610990</name><Point><coordinates>-0.1851,39.7405,0</coordinates></Point></Placemark><Placemark><name>Puente De Alcantara - Alcantara &gt;+34927390947</name><Point><coordinates>-6.89428,39.74068,0</coordinates></Point></Placemark><Placemark><name>Mediterraneo 2a - Chilches (01/01-31/12) &gt;+34964583218</name><Point><coordinates>-0.16585,39.75823,0</coordinates></Point></Placemark><Placemark><name>Hecu Camping - Tuejar &gt;+34961635042</name><Point><coordinates>-1.04389,39.78134,0</coordinates></Point></Placemark><Placemark><name>Los Naranjos 2a - Moncofar (01/01-31/12) &gt;+34964580337</name><Point><coordinates>-0.14921,39.78137,0</coordinates></Point></Placemark><Placemark><name>Mon Mar 2a - Moncofar (01/01-31/12) &gt;+34964588592 -CCA</name><Point><coordinates>-0.12817,39.80876,0</coordinates></Point></Placemark><Placemark><name>Costa Levante 2a - Nules &gt;+34605147311</name><Point><coordinates>-0.1234,39.81276,0</coordinates></Point></Placemark><Placemark><name>Municipal De Altura - Altura &gt;+34964147089</name><Point><coordinates>-0.51675,39.84716,0</coordinates></Point></Placemark><Placemark><name>Monte San Blas - Segorbe &gt;+34964711181</name><Point><coordinates>-0.49586,39.85302,0</coordinates></Point></Placemark><Placemark><name>El Greco - Toledo &gt;+34925220090</name><Point><coordinates>-4.04684,39.86476,0</coordinates></Point></Placemark><Placemark><name>Altomira - Navajas (Castellon) (01/01-31/12) &gt;+34964713211 -CCpg673-CCA</name><Point><coordinates>-0.51051,39.87471,0</coordinates></Point></Placemark><Placemark><name>Sierra Espadan - Eslida &gt;+34964628137</name><Point><coordinates>-0.29805,39.8826,0</coordinates></Point></Placemark><Placemark><name>Villa de Viver - Viver &gt;+34964141334</name><Point><coordinates>-0.61836,39.9096,0</coordinates></Point></Placemark><Placemark><name>Son Bou - Alaior &gt;+34971372727</name><Point><coordinates>4.0907,39.91983,0</coordinates></Point></Placemark><Placemark><name>Los Cloticos - Bejis [&lt;51] &gt;+34964764015</name><Point><coordinates>-0.73316,39.92747,0</coordinates></Point></Placemark><Placemark><name>Parque Natural de Monfrague - Malpartida de Plasencia (01/01-31/12) &gt;+34927459233 -CCpg636-CCA</name><Point><coordinates>-6.08438,39.94375,0</coordinates></Point></Placemark><Placemark><name>s'Atalaia - Ferreries [&lt;51] &gt;+34971374232</name><Point><coordinates>3.98682,39.95194,0</coordinates></Point></Placemark><Placemark><name>Cazalegas 2a - Cazalegas (01/01-31/12) &gt;+34925872503</name><Point><coordinates>-4.6954,40.01347,0</coordinates></Point></Placemark><Placemark><name>Florida 2a - Benicassim (01/01-31/12) &gt;+34964392385</name><Point><coordinates>0.04447,40.03521,0</coordinates></Point></Placemark><Placemark><name>Tauro 2a - Benicassim (01/01-31/12) &gt;+34964392967</name><Point><coordinates>0.04105,40.03721,0</coordinates></Point></Placemark><Placemark><name>Gran Avenida 2a - Benicassim (01/04-30/09) &gt;+34964394101</name><Point><coordinates>0.04402,40.03824,0</coordinates></Point></Placemark><Placemark><name>Montemar 2a - Benicassim [&lt;51] (01/01-31/12) &gt;+34964303542</name><Point><coordinates>0.03987,40.04091,0</coordinates></Point></Placemark><Placemark><name>Internacional Aranjuez - Aranjuez (01/01-31/12) &gt;+34918911395 -CCA</name><Point><coordinates>-3.59934,40.04213,0</coordinates></Point></Placemark><Placemark><name>La Chopera 2a - Plasencia [&lt;51] (01/01-31/12) &gt;+34927416660 -CCA</name><Point><coordinates>-6.05748,40.04378,0</coordinates></Point></Placemark><Placemark><name>Bonterra 1a - Benicasim (01/01-31/12) &gt;+34964300007 -CCA</name><Point><coordinates>0.07462,40.05713,0</coordinates></Point></Placemark><Placemark><name>Azahar 1a - Benicasim (01/01-31/12) &gt;+34964303551 -CCA</name><Point><coordinates>0.08499,40.05906,0</coordinates></Point></Placemark><Placemark><name>Villa De Manzanera - Manzanera &gt;+34978781748</name><Point><coordinates>-0.82555,40.06295,0</coordinates></Point></Placemark><Placemark><name>Pinar De Jabaga - Cuenca &gt;+34969273338</name><Point><coordinates>-2.21155,40.0833,0</coordinates></Point></Placemark><Placemark><name>Voramar - Oropesa del Mar &gt;+34964310206</name><Point><coordinates>0.14373,40.08334,0</coordinates></Point></Placemark><Placemark><name>Rosarito - Las Ventas de San Julian &gt;+34608910201</name><Point><coordinates>-5.32026,40.08881,0</coordinates></Point></Placemark><Placemark><name>Carlos I - Cuacos De Yuste &gt;+34927172092</name><Point><coordinates>-5.71793,40.09944,0</coordinates></Point></Placemark><Placemark><name>Del Pozo 3a - Hormigos (01/01-31/12) &gt;+34925740217</name><Point><coordinates>-4.48266,40.10366,0</coordinates></Point></Placemark><Placemark><name>El Paraiso 3a - Hormigos (Easter-15/09) &gt;+34980620659</name><Point><coordinates>-4.47991,40.10626,0</coordinates></Point></Placemark><Placemark><name>Garganta Cuartos - Losar De La Vera &gt;+34927570727</name><Point><coordinates>-5.57548,40.10685,0</coordinates></Point></Placemark><Placemark><name>Godoy - Losar De La Vera &gt;+34927570838</name><Point><coordinates>-5.57983,40.10954,0</coordinates></Point></Placemark><Placemark><name>Kivu - Oropesa del Mar &gt;+34964319533</name><Point><coordinates>0.1584,40.12089,0</coordinates></Point></Placemark><Placemark><name>Didota - Oropesa del Mar (01/01-31/12) &gt;+34964319551 -CCA</name><Point><coordinates>0.15823,40.12117,0</coordinates></Point></Placemark><Placemark><name>Oasis - Oropesa del Mar &gt;+34964319677</name><Point><coordinates>0.15553,40.12192,0</coordinates></Point></Placemark><Placemark><name>La Vera - Jarandilla De La Vera &gt;+34927560611</name><Point><coordinates>-5.63856,40.12388,0</coordinates></Point></Placemark><Placemark><name>Riberamar 2a - Ribera de Cabanes (01/03-30/09) &gt;+34964319762</name><Point><coordinates>0.15643,40.12524,0</coordinates></Point></Placemark><Placemark><name>Cuenca - Cuenca &gt;+34969231656</name><Point><coordinates>-2.14031,40.12682,0</coordinates></Point></Placemark><Placemark><name>Yuste - Aldeanueva De La Vera &gt;+34927572522</name><Point><coordinates>-5.69328,40.12701,0</coordinates></Point></Placemark><Placemark><name>Torre la Sal 2 1a - Ribera de Cabanes (01/01-31/12) &gt;+34964319567 -CCA-BD_ES-F.003a</name><Point><coordinates>0.15891,40.12783,0</coordinates></Point></Placemark><Placemark><name>Borbollon - Santibanez El Alto &gt;+34927197008</name><Point><coordinates>-6.58259,40.12793,0</coordinates></Point></Placemark><Placemark><name>Torre la Sal 1 - Ribera de Cabenes (01/03-31/10) &gt;+34964319777 -CCA</name><Point><coordinates>0.1596,40.12837,0</coordinates></Point></Placemark><Placemark><name>Maria - Ribera de Cabanes (01/01-31/12) &gt;+34964319719</name><Point><coordinates>0.15982,40.12852,0</coordinates></Point></Placemark><Placemark><name>Jaranda - Jarandilla De La Vera &gt;+34927560454</name><Point><coordinates>-5.66717,40.13593,0</coordinates></Point></Placemark><Placemark><name>Candeleda - Candeleda &gt;+34607954597</name><Point><coordinates>-5.26753,40.14471,0</coordinates></Point></Placemark><Placemark><name>Alardos - Madrigal De La Vera &gt;+34927565066</name><Point><coordinates>-5.35771,40.14785,0</coordinates></Point></Placemark><Placemark><name>La Mata - Madrigal De La Vera &gt;+34927565238</name><Point><coordinates>-5.35999,40.1529,0</coordinates></Point></Placemark><Placemark><name>Rio Jerte - Navaconcejo &gt;+34927173006</name><Point><coordinates>-5.84475,40.16941,0</coordinates></Point></Placemark><Placemark><name>Torre Nostra 2a - Torreblanca (01/01-31/12) &gt;+34964425037</name><Point><coordinates>0.21805,40.19916,0</coordinates></Point></Placemark><Placemark><name>Mon Rossi 2a - Torreblanca (01/01-31/12) &gt;+34964425096</name><Point><coordinates>0.2313,40.2003,0</coordinates></Point></Placemark><Placemark><name>Garganta La Eliza - Lanzahita &gt;+34920378846</name><Point><coordinates>-4.93625,40.20704,0</coordinates></Point></Placemark><Placemark><name>Valle Del Jerte - Jerte &gt;+34927470127</name><Point><coordinates>-5.76971,40.20758,0</coordinates></Point></Placemark><Placemark><name>Sierra De Gata - Gata &gt;+34927672168</name><Point><coordinates>-6.64231,40.21203,0</coordinates></Point></Placemark><Placemark><name>Playa Tropicana 1a - Alcossebre (01/01-31/12) &gt;+34964412463 -CCA</name><Point><coordinates>0.26831,40.22032,0</coordinates></Point></Placemark><Placemark><name>Los Galayos - Guisando &gt;+34920374021</name><Point><coordinates>-5.15215,40.2234,0</coordinates></Point></Placemark><Placemark><name>Valverde Natural - Valverde del Fresno [&lt;51] &gt;+34627903892</name><Point><coordinates>-6.86844,40.22346,0</coordinates></Point></Placemark><Placemark><name>Prados Abiertos - Mombeltran &gt;+34920386061</name><Point><coordinates>-5.03387,40.231,0</coordinates></Point></Placemark><Placemark><name>Torre los Frailes - Nogueruelas &gt;+34978804101</name><Point><coordinates>-0.62349,40.23735,0</coordinates></Point></Placemark><Placemark><name>Alcossebre 2a - Alcossebre (01/01-31/12) &gt;+34964412889</name><Point><coordinates>0.27161,40.24538,0</coordinates></Point></Placemark><Placemark><name>El Moron - Mora de Rubielos &gt;+34978800064</name><Point><coordinates>-0.75771,40.24767,0</coordinates></Point></Placemark><Placemark><name>El Pairon -Puertomingalvo &gt;+34978802019</name><Point><coordinates>-0.46153,40.25616,0</coordinates></Point></Placemark><Placemark><name>Roma 2a - Aldeanueva del Camino (15/03-15/11) &gt;+34927479132</name><Point><coordinates>-5.90995,40.26772,0</coordinates></Point></Placemark><Placemark><name>El Pinajarro 1a - Hervas (05/04-20/09) &gt;+34927481673</name><Point><coordinates>-5.88029,40.26966,0</coordinates></Point></Placemark><Placemark><name>Ribamar 1a - Alcossebre (01/01-31/12) &gt;+34964761163 -CCA</name><Point><coordinates>0.30653,40.2701,0</coordinates></Point></Placemark><Placemark><name>La Guilera - Navalonguilla &gt;+34920207140</name><Point><coordinates>-5.5098,40.27031,0</coordinates></Point></Placemark><Placemark><name>Econatur - Rubiales [&lt;51] &gt;+34978681043</name><Point><coordinates>-1.27223,40.2802,0</coordinates></Point></Placemark><Placemark><name>Las Canadas 1a - Banos de Montemayor (01/01-31/12) &gt;+34927481126 -CCpg637</name><Point><coordinates>-5.88153,40.28546,0</coordinates></Point></Placemark><Placemark><name>Lago Coto Cisneros - Arganda Del Rey &gt;+34918719695</name><Point><coordinates>-3.51214,40.29223,0</coordinates></Point></Placemark><Placemark><name>Vistabella - Vistabella Del Maestrazgo &gt;+34964389072</name><Point><coordinates>-0.29405,40.29444,0</coordinates></Point></Placemark><Placemark><name>Del Pino - Pinofranqueado &gt;+34927674328</name><Point><coordinates>-6.33359,40.2985,0</coordinates></Point></Placemark><Placemark><name>Fuente Helecha - Casavieja &gt;+34918678487</name><Point><coordinates>-4.75335,40.29974,0</coordinates></Point></Placemark><Placemark><name>Algarbe - Terriente &gt;+34615055415</name><Point><coordinates>-1.52328,40.3063,0</coordinates></Point></Placemark><Placemark><name>Los Madronos - Pinofranqueado &gt;+34659181797</name><Point><coordinates>-6.33817,40.30742,0</coordinates></Point></Placemark><Placemark><name>Las Majadas - Las Majadas &gt;+34969283043</name><Point><coordinates>-2.00204,40.31146,0</coordinates></Point></Placemark><Placemark><name>Alpha 2a - Getafe (01/01-31/12) &gt;+34916958069</name><Point><coordinates>-3.68889,40.31716,0</coordinates></Point></Placemark><Placemark><name>Arganda - Arganda Del Rey &gt;+34918712663</name><Point><coordinates>-3.45642,40.32015,0</coordinates></Point></Placemark><Placemark><name>Hermosillo - Los Llanos De Tormes &gt;+34920207155</name><Point><coordinates>-5.48456,40.32819,0</coordinates></Point></Placemark><Placemark><name>Gredos - Hoyos Del Espino &gt;+34920207585</name><Point><coordinates>-5.17382,40.33916,0</coordinates></Point></Placemark><Placemark><name>Navagredos - Navarredonda De Gredos &gt;+34920207476</name><Point><coordinates>-5.13335,40.34209,0</coordinates></Point></Placemark><Placemark><name>Bellavista 1a - Peniscola (01/01-31/12) &gt;+34964480135</name><Point><coordinates>0.39574,40.35959,0</coordinates></Point></Placemark><Placemark><name>Ferrer 2a - Peniscola (01/01-31/12) &gt;+34964489223</name><Point><coordinates>0.3959,40.36283,0</coordinates></Point></Placemark><Placemark><name>Cinco Castanos 2a - Candelario (01/04-30/09) &gt;+34923413204</name><Point><coordinates>-5.74918,40.36354,0</coordinates></Point></Placemark><Placemark><name>Los Alamos - Alcala De La Selva &gt;+34978801167</name><Point><coordinates>-0.69356,40.3638,0</coordinates></Point></Placemark><Placemark><name>La Enfermeria - Pelayos de la Presa [&lt;51] &gt;+34679547570</name><Point><coordinates>-4.32505,40.36428,0</coordinates></Point></Placemark><Placemark><name>El Eden 2a - Peniscola (01/01-31/12) &gt;+34964480444 -CCA</name><Point><coordinates>0.40277,40.37096,0</coordinates></Point></Placemark><Placemark><name>La Ardilla Roja - San Martin De Valdeiglesias &gt;+34918644119</name><Point><coordinates>-4.32423,40.37165,0</coordinates></Point></Placemark><Placemark><name>El Cid 2a - Peniscola (01/01-31/12) &gt;+34964480380</name><Point><coordinates>0.39258,40.37683,0</coordinates></Point></Placemark><Placemark><name>Los Pinos 1a - Peniscola (01/01-31/12) &gt;+34964480379 -CCA</name><Point><coordinates>0.38852,40.37933,0</coordinates></Point></Placemark><Placemark><name>Sol d'Or 2a - Peniscola (01/01-31/12) &gt;+34964480653</name><Point><coordinates>0.38571,40.3804,0</coordinates></Point></Placemark><Placemark><name>Arco Iris 2a - Villaviciosa de Odon (01/01-31/12) &gt;+34916160387 -CCA</name><Point><coordinates>-3.90695,40.38095,0</coordinates></Point></Placemark><Placemark><name>Cactus 2a - Peniscola (15/06-15/10) &gt;+34964473338</name><Point><coordinates>0.4103,40.39025,0</coordinates></Point></Placemark><Placemark><name>Vizmar 2a - Peniscola (01/01-31/12) &gt;+34964473439 -CCA</name><Point><coordinates>0.40691,40.39217,0</coordinates></Point></Placemark><Placemark><name>Los Talleres - Hoyocasero &gt;+34920299853</name><Point><coordinates>-4.97912,40.39608,0</coordinates></Point></Placemark><Placemark><name>La Volta 1a - Peniscola (01/06-31/08) &gt;+34964470101</name><Point><coordinates>0.40303,40.39797,0</coordinates></Point></Placemark><Placemark><name>Spa Natura-Azahar - Peniscola (01/01-28/12) &gt;+34964475480 -CCpg672</name><Point><coordinates>0.38118,40.40163,0</coordinates></Point></Placemark><Placemark><name>Complejo de Turismo Rural - Riomalo de Abajo [&lt;51] &gt;+34927434020</name><Point><coordinates>-6.08493,40.40284,0</coordinates></Point></Placemark><Placemark><name>La Valltorta - Tirig &gt;+34964418678</name><Point><coordinates>0.0673,40.4045,0</coordinates></Point></Placemark><Placemark><name>La Ruta De Gredos - Navaluenga &gt;+34920298473</name><Point><coordinates>-4.69875,40.40749,0</coordinates></Point></Placemark><Placemark><name>Valle De Iruelas - El Barraco &gt;+34920287250</name><Point><coordinates>-4.57362,40.40771,0</coordinates></Point></Placemark><Placemark><name>Ciudad De Albarracin - Albarracin (15/03-15/11) &gt;+34978710197 -CCA</name><Point><coordinates>-1.42726,40.41166,0</coordinates></Point></Placemark><Placemark><name>Serrania - Poyatos [&lt;51] &gt;+34969314000</name><Point><coordinates>-2.06433,40.413,0</coordinates></Point></Placemark><Placemark><name>Alegria del Mar 2a - Benicarlo (01/01-31/12) &gt;+34964470871 -CCA</name><Point><coordinates>0.4376,40.4264,0</coordinates></Point></Placemark><Placemark><name>Pantano del Burguillo - El Barraco &gt;+34920287078</name><Point><coordinates>-4.61684,40.42848,0</coordinates></Point></Placemark><Placemark><name>Rural Vega de Francia - Sotoserrano [&lt;51] &gt;+34923161104</name><Point><coordinates>-6.01041,40.43014,0</coordinates></Point></Placemark><Placemark><name>El Llosar - Villafranca Del Cid &gt;+34964441409</name><Point><coordinates>-0.26846,40.43955,0</coordinates></Point></Placemark><Placemark><name>Cala Puntal 2a - Vinaros (01/01-31/12) &gt;+34964401729</name><Point><coordinates>-0.45346,40.45065,0</coordinates></Point></Placemark><Placemark><name>L' Orangeraie - Calig [&lt;51] (01/04-12/10) &gt;+34964765059 -CCA</name><Point><coordinates>0.35224,40.45225,0</coordinates></Point></Placemark><Placemark><name>Osuna 2a - Madrid (01/01-31/12) &gt;+34917410510</name><Point><coordinates>-3.60317,40.45381,0</coordinates></Point></Placemark><Placemark><name>La Dehesa - Canamares &gt;+34969310471</name><Point><coordinates>-2.2288,40.46242,0</coordinates></Point></Placemark><Placemark><name>El Burro Blanco - Miranda del Castanar [&lt;51] (01/04-01/10) &gt;+34923161100</name><Point><coordinates>-5.99844,40.47499,0</coordinates></Point></Placemark><Placemark><name>Ecomillans-Sacedon &gt;+34949351018</name><Point><coordinates>-2.727,40.4814,0</coordinates></Point></Placemark><Placemark><name>Maestrat Park - San Jorge (01/01-31/12) &gt;+34964412262</name><Point><coordinates>0.31904,40.49276,0</coordinates></Point></Placemark><Placemark><name>Vinaros 1a - Vinaros (01/01-31/12) &gt;+34964402424</name><Point><coordinates>0.48314,40.49303,0</coordinates></Point></Placemark><Placemark><name>Las Corralizas - Bronchales [&lt;51] (27/03-01/11) &gt;+34627408182 -CCpg649-CCA</name><Point><coordinates>-1.59497,40.50012,0</coordinates></Point></Placemark><Placemark><name>Valdemorillo - Valdemorillo &gt;+34918990002</name><Point><coordinates>-4.05568,40.5059,0</coordinates></Point></Placemark><Placemark><name>San Juan - Valdemorillo &gt;+34918991300</name><Point><coordinates>-4.05053,40.50842,0</coordinates></Point></Placemark><Placemark><name>Al Bereka - La Alberca &gt;+34923415195</name><Point><coordinates>-6.12281,40.50903,0</coordinates></Point></Placemark><Placemark><name>El Canto La Gallina - Valdemaqueda &gt;+34918984820</name><Point><coordinates>-4.28791,40.50925,0</coordinates></Point></Placemark><Placemark><name>Municipal de Orea - Orea [&lt;51] &gt;+34949836001</name><Point><coordinates>-1.71971,40.51001,0</coordinates></Point></Placemark><Placemark><name>Sol de Riu Playa 1a - Vinaros (01/01-31/12) &gt;+34964454917</name><Point><coordinates>0.50667,40.51694,0</coordinates></Point></Placemark><Placemark><name>Sierra De Francia - Nava De Francia &gt;+34923454081</name><Point><coordinates>-6.13768,40.52179,0</coordinates></Point></Placemark><Placemark><name>El Guijo 2a - Guijo de Avilla (10/01-20/12) &gt;+34923158011</name><Point><coordinates>-5.63268,40.53803,0</coordinates></Point></Placemark><Placemark><name>l'Estanyet 2a - Les Cases d'Alcanar (01/01-31/12) &gt;+34977737268 -CCA</name><Point><coordinates>0.51971,40.5404,0</coordinates></Point></Placemark><Placemark><name>Caimodorro - Orihuela Del Tremedal &gt;+34978714355</name><Point><coordinates>-1.65248,40.54549,0</coordinates></Point></Placemark><Placemark><name>Naturaleza - San Miguel De Valero &gt;+34923415577</name><Point><coordinates>-5.91438,40.55465,0</coordinates></Point></Placemark><Placemark><name>Cases 2a - Les Cases d'Alcanar (01/01-30/09) &gt;+34977737165</name><Point><coordinates>0.53228,40.557,0</coordinates></Point></Placemark><Placemark><name>Las Cavenes - El Cabaco [&lt;51] &gt;+34923454105</name><Point><coordinates>-6.13403,40.56796,0</coordinates></Point></Placemark><Placemark><name>El Portal De La Sierra - Linares De Riofrio &gt;+34923416141</name><Point><coordinates>-5.92968,40.59056,0</coordinates></Point></Placemark><Placemark><name>La Pesquera - Ciudad Rodrigo &gt;+34923481348</name><Point><coordinates>-6.53447,40.59212,0</coordinates></Point></Placemark><Placemark><name>Alfacs 2a - Sant Carles de la Rapita (10/04-03/11) &gt;+34977740561 -CCA</name><Point><coordinates>0.57018,40.59527,0</coordinates></Point></Placemark><Placemark><name>El Escorial - Madrid (01/01-31/12) &gt;+34902014900 -CCA</name><Point><coordinates>-4.09995,40.62625,0</coordinates></Point></Placemark><Placemark><name>La Tancada - Amposta [&lt;51] &gt;+34977261047</name><Point><coordinates>0.71767,40.64589,0</coordinates></Point></Placemark><Placemark><name>El Rebollar - Tamames &gt;+34923449577</name><Point><coordinates>-6.09228,40.65198,0</coordinates></Point></Placemark><Placemark><name>Mediterrani Blau - Amposta &gt;+34977479046</name><Point><coordinates>0.78245,40.65594,0</coordinates></Point></Placemark><Placemark><name>La Nava - Peguerinos &gt;+34918983272</name><Point><coordinates>-4.20735,40.65596,0</coordinates></Point></Placemark><Placemark><name>Valle Enmedio - Peguerinos &gt;+34918983176</name><Point><coordinates>-4.20029,40.65619,0</coordinates></Point></Placemark><Placemark><name>Eucaliptus - Amposta (04/04-21/09) &gt;+34977479046 -CCA</name><Point><coordinates>0.77978,40.65678,0</coordinates></Point></Placemark><Placemark><name>La Tinenca-Moli L'Abad - La Pobla de Benifassa &gt;+34977713418</name><Point><coordinates>0.25257,40.66916,0</coordinates></Point></Placemark><Placemark><name>Aliaga-La Morta - Aliaga &gt;+34978771377</name><Point><coordinates>-0.69839,40.6728,0</coordinates></Point></Placemark><Placemark><name>El Colvillo - Trillo &gt;+34949815173</name><Point><coordinates>-2.58225,40.69418,0</coordinates></Point></Placemark><Placemark><name>L'Aube - Deltebre [&lt;51] &gt;+34977267066</name><Point><coordinates>0.84921,40.71982,0</coordinates></Point></Placemark><Placemark><name>Riumar - Deltebre &gt;+34977267680</name><Point><coordinates>0.82959,40.72877,0</coordinates></Point></Placemark><Placemark><name>El Ortigal - La Pedriza &gt;+34918530120</name><Point><coordinates>-3.87633,40.7413,0</coordinates></Point></Placemark><Placemark><name>La Fresneda - Soto del Real &gt;+34918477213</name><Point><coordinates>-3.81567,40.74269,0</coordinates></Point></Placemark><Placemark><name>Municipal De Castellote - Castellote &gt;+34617465125</name><Point><coordinates>-0.31935,40.77522,0</coordinates></Point></Placemark><Placemark><name>El Cruce - La Fuente De San Esteban [&lt;51] &gt;+34923440130</name><Point><coordinates>-6.24367,40.79116,0</coordinates></Point></Placemark><Placemark><name>Dos Rocas - Aguaviva [&lt;51] &gt;+34978848234</name><Point><coordinates>-0.166,40.79807,0</coordinates></Point></Placemark><Placemark><name>Ampolla Playa 2a - l'Ampolla (01/03-31/10) &gt;+34977460535 -CCA</name><Point><coordinates>0.69966,40.79937,0</coordinates></Point></Placemark><Placemark><name>Sol 2a - l'Ampolla (01/01-31/12) &gt;+34977593256</name><Point><coordinates>0.68824,40.80263,0</coordinates></Point></Placemark><Placemark><name>Piscis 2a - Navalafuente (01/01-31/12) &gt;+34918432268</name><Point><coordinates>-3.69168,40.8082,0</coordinates></Point></Placemark><Placemark><name>La Font - Fuentespalda &gt;+34978856506</name><Point><coordinates>0.06827,40.80886,0</coordinates></Point></Placemark><Placemark><name>La Plata Cuatro Calzadas 2a - Salamanca (01/01-31/12) &gt;+34923168099</name><Point><coordinates>-5.6336,40.8108,0</coordinates></Point></Placemark><Placemark><name>Sant Jordi 3a - l'Ampolla (10/04-15/10) &gt;+34977460415</name><Point><coordinates>0.7156,40.81313,0</coordinates></Point></Placemark><Placemark><name>Las Aguas - Canizar Del Olivar &gt;+34689551617</name><Point><coordinates>-0.64414,40.81641,0</coordinates></Point></Placemark><Placemark><name>Tormes 2a - Alba de Tormes (01/01-31/12) &gt;+34923170532</name><Point><coordinates>-5.5186,40.8197,0</coordinates></Point></Placemark><Placemark><name>D'Oremor 2a - Cabanillas de la Sierra (01/01-31/12) &gt;+34918439034</name><Point><coordinates>-3.63769,40.82119,0</coordinates></Point></Placemark><Placemark><name>La Palanca - Mas de las Matas &gt;+34600041911</name><Point><coordinates>-0.24016,40.82919,0</coordinates></Point></Placemark><Placemark><name>Las Cabanas - Martin del Rio &gt;+34978750309</name><Point><coordinates>-0.88137,40.83218,0</coordinates></Point></Placemark><Placemark><name>El Valle - Miraflores de la Sierra &gt;+34918443587</name><Point><coordinates>-3.75164,40.84362,0</coordinates></Point></Placemark><Placemark><name>Pico de la Miel 1a - La Cabrera (01/01-31/12) &gt;+34918688082 -CCA</name><Point><coordinates>-3.61602,40.85821,0</coordinates></Point></Placemark><Placemark><name>Ametlla Platja 1a - l'Ametlla de Mar (01/01-31/12) &gt;+34977267784 -CCA</name><Point><coordinates>0.77849,40.8655,0</coordinates></Point></Placemark><Placemark><name>Nautic 1a - l'Ametlla de Mar (24/03-30/09) &gt;+34977456110 -CCA</name><Point><coordinates>0.80446,40.88661,0</coordinates></Point></Placemark><Placemark><name>Aeronautica Del Guadarrama - Fuentemilanos &gt;+34921120092</name><Point><coordinates>-4.24146,40.88849,0</coordinates></Point></Placemark><Placemark><name>El Picachuelo 2a - El Berrueco (01/01-31/12) &gt;+34918686003</name><Point><coordinates>-3.55668,40.90009,0</coordinates></Point></Placemark><Placemark><name>La Fresneda - La Fresneda [&lt;51] (01/04-30/09) &gt;+34978854085</name><Point><coordinates>0.06285,40.90652,0</coordinates></Point></Placemark><Placemark><name>Els Ports - Arnes (01/01-31/12) &gt;+34977435560 -CCA</name><Point><coordinates>0.26772,40.91888,0</coordinates></Point></Placemark><Placemark><name>Cervera 2a - Cervera de Buitrago (01/01-31/12) &gt;+34918686136</name><Point><coordinates>-3.53144,40.92012,0</coordinates></Point></Placemark><Placemark><name>Masia l'Assut - Tivenys [&lt;51] &gt;+34977496001</name><Point><coordinates>0.49676,40.92135,0</coordinates></Point></Placemark><Placemark><name>Acueducto - Segovia &gt;+34921425000</name><Point><coordinates>-4.09235,40.93131,0</coordinates></Point></Placemark><Placemark><name>La Masia 1a - l'Hospitalet de l'Infant (01/02-30/11) &gt;+34977820588 -CCpg671-CCA</name><Point><coordinates>0.85684,40.94011,0</coordinates></Point></Placemark><Placemark><name>Regio 1a - Salamanga-Santa Marta de Tormes (01/01-31/12) &gt;+34923138888 -CCA</name><Point><coordinates>-5.61452,40.94815,0</coordinates></Point></Placemark><Placemark><name>Monte Holiday 2a - Gargantilla de Lozoya (01/01-31/12) &gt;+34918695065 -CCpg641-CCA</name><Point><coordinates>-3.72937,40.94972,0</coordinates></Point></Placemark><Placemark><name>La Hojita - Lumbrales &gt;+34923169268</name><Point><coordinates>-6.65318,40.95838,0</coordinates></Point></Placemark><Placemark><name>Don Quijote 2a - Cabrerizos-Salamanca (01/03-31/10) &gt;+34923209052 -CCpg638-CCA</name><Point><coordinates>-5.60335,40.97519,0</coordinates></Point></Placemark><Placemark><name>Naturist - El Templo Del Sol - L'Hospitalet De L'Infant &gt;+34977823434</name><Point><coordinates>0.90113,40.9772,0</coordinates></Point></Placemark><Placemark><name>Cala d'Oques 3a - l'Hospitalet de l'Infant (01/01-31/12) &gt;+34977823254</name><Point><coordinates>0.90361,40.9777,0</coordinates></Point></Placemark><Placemark><name>Tamajon - Tamajon &gt;+34949859174</name><Point><coordinates>-3.24328,40.98865,0</coordinates></Point></Placemark><Placemark><name>Ruta de la Plata 2a - Villares de la Reina (01/01-31/12) &gt;+34923289574 -CCA</name><Point><coordinates>-5.67898,40.99953,0</coordinates></Point></Placemark><Placemark><name>Terra Alta - Bot &gt;+34673450651</name><Point><coordinates>0.3789,41.0072,0</coordinates></Point></Placemark><Placemark><name>Miramar 2a - Montroig del Camp (01/01-30/11) &gt;+34977811203 -CCA</name><Point><coordinates>0.95916,41.02508,0</coordinates></Point></Placemark><Placemark><name>La Capea 2a - Aldeaseca de la Armuna (01/03-31/10) &gt;+34923251066</name><Point><coordinates>-5.67306,41.02717,0</coordinates></Point></Placemark><Placemark><name>Playa Montroig 1a - Montroig del Camp (04/04-25/10) &gt;+34977810637 -CCA</name><Point><coordinates>0.96919,41.03346,0</coordinates></Point></Placemark><Placemark><name>La Torre del Sol 1a - Montroig del Camp (15/03-31/10) &gt;+34977810027 -CCpg670-CCA-BD_ES-D.064</name><Point><coordinates>0.97481,41.03733,0</coordinates></Point></Placemark><Placemark><name>Els Prats 2a - Miami Platja (15/03-31/10) &gt;+34977810027 -CCA</name><Point><coordinates>0.98213,41.04045,0</coordinates></Point></Placemark><Placemark><name>Tivissa - Tivissa &gt;+34902151413</name><Point><coordinates>0.73816,41.04153,0</coordinates></Point></Placemark><Placemark><name>Playa y Fiesta 2a - Montroig del Camp (01/04-30/09) &gt;+34977179513</name><Point><coordinates>0.99417,41.045,0</coordinates></Point></Placemark><Placemark><name>Oasis Mar 2a - Montroig del Camp (01/03-31/10) &gt;+34977179595 -CCA</name><Point><coordinates>1.00412,41.04709,0</coordinates></Point></Placemark><Placemark><name>Joan 2a - Cambrils (13/01-14/12) &gt;+34977364604 -CCA-BD_ES-D.057</name><Point><coordinates>1.02674,41.05785,0</coordinates></Point></Placemark><Placemark><name>Olimpia - Pedrosillo el Ralo [&lt;51] (01/01-31/12) &gt;+34923080854</name><Point><coordinates>-5.54565,41.05829,0</coordinates></Point></Placemark><Placemark><name>La Llosa 3a - Cambrils (01/01-31/10) &gt;+34977791180 -CCA</name><Point><coordinates>1.0446,41.06522,0</coordinates></Point></Placemark><Placemark><name>Playa Cambrils Don Camilo 2a - Cambrils (15/03-15/10) &gt;+34977361490 -CCpg669-CCA-BD_ES-D.056</name><Point><coordinates>1.0831,41.0667,0</coordinates></Point></Placemark><Placemark><name>Alcaniz - Alcaniz &gt;+34978722046</name><Point><coordinates>-0.1869,41.06678,0</coordinates></Point></Placemark><Placemark><name>Monte Piadaro - Torre Val de San Pedro [&lt;51] &gt;+34921506345</name><Point><coordinates>-3.87542,41.07224,0</coordinates></Point></Placemark><Placemark><name>La Union 2a - Salou (01/04-30/09) &gt;+34977384816</name><Point><coordinates>1.15459,41.0727,0</coordinates></Point></Placemark><Placemark><name>Baix Camp 3a - Cambrils (20/03-10/10) &gt;+34977361242</name><Point><coordinates>1.08353,41.07302,0</coordinates></Point></Placemark><Placemark><name>Sanguli 1a - Salou (15/03-31/10) &gt;+34977381641</name><Point><coordinates>1.11737,41.07519,0</coordinates></Point></Placemark><Placemark><name>La Corona 3a - Cambrils (10/03-31/10) &gt;+34977385107</name><Point><coordinates>1.10617,41.076,0</coordinates></Point></Placemark><Placemark><name>Cambrils Park - Cambrils (01/04-30/09) &gt;+34977351031</name><Point><coordinates>1.10932,41.07647,0</coordinates></Point></Placemark><Placemark><name>La Siesta 2a - Salou (25/03-10/10) &gt;+34977380852</name><Point><coordinates>1.1394,41.07756,0</coordinates></Point></Placemark><Placemark><name>Amfora d'Arcs 2a - Cambrils (25/01-17/12) &gt;+34977360974</name><Point><coordinates>1.06615,41.07898,0</coordinates></Point></Placemark><Placemark><name>La Pineda de Salou 2a - La Pineda (25/03-30/09) &gt;+34977373080</name><Point><coordinates>1.18233,41.08849,0</coordinates></Point></Placemark><Placemark><name>La Acebeda 2a - La Acebeda (01/04-30/09) &gt;+34918699038</name><Point><coordinates>-3.62228,41.08877,0</coordinates></Point></Placemark><Placemark><name>Vinyols Camp - Vinyols i Els Arcs &gt;+34977850409</name><Point><coordinates>1.04558,41.11132,0</coordinates></Point></Placemark><Placemark><name>Torre de la Mora 1a - Tamarit (20/03-31/10) &gt;+34977650277 -CCA</name><Point><coordinates>1.34415,41.12887,0</coordinates></Point></Placemark><Placemark><name>Las Salinas 3a - Tarragona (01/04-30/09) &gt;+34977207628</name><Point><coordinates>1.30723,41.13024,0</coordinates></Point></Placemark><Placemark><name>Las Palmeras1a - Tarragona (05/04-10/10) &gt;+34977208081 -CCpg667-CCA</name><Point><coordinates>1.31204,41.13025,0</coordinates></Point></Placemark><Placemark><name>Platja Llarga 3a - Tarragona (Easter-30/09) &gt;+34977207952</name><Point><coordinates>1.30347,41.1308,0</coordinates></Point></Placemark><Placemark><name>Tamarit Park 1a - Tamarit (25/03-31/10) &gt;+34977650128</name><Point><coordinates>1.36002,41.1328,0</coordinates></Point></Placemark><Placemark><name>Trillas Platja 2a - Tamarit (25/03-05/10) &gt;+34977650249</name><Point><coordinates>1.35828,41.13414,0</coordinates></Point></Placemark><Placemark><name>Don Quijote 2a - Altafulla (15/03-30/09) &gt;+34977650205</name><Point><coordinates>1.38356,41.13803,0</coordinates></Point></Placemark><Placemark><name>Santa Eulalia 2a - Altafulla (Easter-30/09) &gt;+34977650213</name><Point><coordinates>1.38261,41.13855,0</coordinates></Point></Placemark><Placemark><name>Caledonia 1a - Tamarit (01/03-20/10) &gt;+34977650098</name><Point><coordinates>1.3542,41.13905,0</coordinates></Point></Placemark><Placemark><name>Miramar Playa 2a - Torredembarra (01/01-31/12) &gt;+34977644705</name><Point><coordinates>1.41154,41.14681,0</coordinates></Point></Placemark><Placemark><name>Relax Sol 2a - Torredembarra (01/03-15/10) &gt;+34977646271 -CCpg666-CCA</name><Point><coordinates>1.41842,41.14858,0</coordinates></Point></Placemark><Placemark><name>Clara 2a - Torredembarra (25/03-30/09) &gt;+34977643480 -CCA-BD_ES-D.042b</name><Point><coordinates>1.41984,41.14948,0</coordinates></Point></Placemark><Placemark><name>La Noria 2a - Torredembarra (25/03-30/09) &gt;+34977640453 -CCA</name><Point><coordinates>1.42099,41.15022,0</coordinates></Point></Placemark><Placemark><name>Gavina Platja Creixell 2a - Creixell de Mar (25/03-25/10) &gt;+34977801503</name><Point><coordinates>1.44153,41.15716,0</coordinates></Point></Placemark><Placemark><name>l'Alba 2a - Creixell (01/03-30/09) &gt;+34977801703</name><Point><coordinates>1.43878,41.16138,0</coordinates></Point></Placemark><Placemark><name>Creixell 2a - Creixell (01/03-31/10) &gt;+34977800620</name><Point><coordinates>1.43952,41.16141,0</coordinates></Point></Placemark><Placemark><name>Sirena Dorada 1a - Creixell (15/01-05/12) &gt;+34977801303</name><Point><coordinates>1.44682,41.1639,0</coordinates></Point></Placemark><Placemark><name>La Plana 2a - Creixell (01/05-30/09) &gt;+34977800304</name><Point><coordinates>1.45816,41.16511,0</coordinates></Point></Placemark><Placemark><name>Stel 1a - Roda de Bara (25/03-30/09) &gt;+34977802002</name><Point><coordinates>1.46429,41.16991,0</coordinates></Point></Placemark><Placemark><name>Arc de Bara 2a - Roda de Bara (01/01-31/12) &gt;+34977800902</name><Point><coordinates>1.46622,41.17124,0</coordinates></Point></Placemark><Placemark><name>Park Playa Bara 1a - Roda de Bara (15/03-30/09) &gt;+34977802701</name><Point><coordinates>1.4696,41.1728,0</coordinates></Point></Placemark><Placemark><name>Francas 2a - El Vendrell (01/04-30/09) &gt;+34977680725 -BD_ES-D.037a</name><Point><coordinates>1.5011,41.17772,0</coordinates></Point></Placemark><Placemark><name>St. Salvador - Coma Ruga (15/03-05/10) &gt;+34977680804</name><Point><coordinates>1.53593,41.18312,0</coordinates></Point></Placemark><Placemark><name>Vendrell Platja 1a - Coma Ruga (11/04-31/10) &gt;+34977694009 -CCpg665-CCA</name><Point><coordinates>1.5552,41.18595,0</coordinates></Point></Placemark><Placemark><name>El Buen Vino 2a - Calafell (01/06-15/09) &gt;+34977691959</name><Point><coordinates>1.57454,41.18985,0</coordinates></Point></Placemark><Placemark><name>Mar de Cunit 3a - Cunit (01/01-31/12) &gt;+34977674058</name><Point><coordinates>1.63816,41.19501,0</coordinates></Point></Placemark><Placemark><name>La Rueda - Cubelles &gt;+34938950207</name><Point><coordinates>1.64336,41.19986,0</coordinates></Point></Placemark><Placemark><name>El Cantosal - Coca [&lt;51] &gt;+34921586705</name><Point><coordinates>-4.53443,41.2076,0</coordinates></Point></Placemark><Placemark><name>Platja Vilanova - Vilanova I La Geltru &gt;+34938950767</name><Point><coordinates>1.68794,41.20786,0</coordinates></Point></Placemark><Placemark><name>El Raco de Mar - Vilanova I La Geltru &gt;+34938155245</name><Point><coordinates>1.70398,41.21028,0</coordinates></Point></Placemark><Placemark><name>Lago - Nuevalos (20/03-15/10) &gt;+34976849038 -CCpg648-CCA</name><Point><coordinates>-1.79221,41.21828,0</coordinates></Point></Placemark><Placemark><name>Welscamp Matarrana - Fayon &gt;+34976634205</name><Point><coordinates>0.36012,41.228,0</coordinates></Point></Placemark><Placemark><name>Vilanova Park - Vilanova i la Geltru (Barcelona) (01/01-31/12) &gt;+34938933402 -CCpg664-CCA-BD_ES-D.033</name><Point><coordinates>1.69083,41.23218,0</coordinates></Point></Placemark><Placemark><name>Sitges - Sitges &gt;+34938941080</name><Point><coordinates>1.78501,41.2322,0</coordinates></Point></Placemark><Placemark><name>Poboleda - Poboleda &gt;+34977827197</name><Point><coordinates>0.84316,41.23231,0</coordinates></Point></Placemark><Placemark><name>Los Bonales - Cantalojas [&lt;51] &gt;+34949828043</name><Point><coordinates>-3.26059,41.23307,0</coordinates></Point></Placemark><Placemark><name>El Garrofer - Sitges (28/02-14/12) &gt;+34938941780 -CCA-BD_ES-D.031</name><Point><coordinates>1.78097,41.23348,0</coordinates></Point></Placemark><Placemark><name>Municipal - Fayon &gt;+34976635764</name><Point><coordinates>0.33176,41.24138,0</coordinates></Point></Placemark><Placemark><name>El Balcon De Arribes - Perena De La Ribera &gt;+34923573016</name><Point><coordinates>-6.52476,41.24364,0</coordinates></Point></Placemark><Placemark><name>Riba Roja De Ebro - Riba Roja D'Ebre &gt;+34977265083</name><Point><coordinates>0.41979,41.24703,0</coordinates></Point></Placemark><Placemark><name>Santa Oliva 2a - Santa Oliva (01/01-31/12) &gt;+34977679546</name><Point><coordinates>1.56064,41.25503,0</coordinates></Point></Placemark><Placemark><name>Hoces del Duraton - Cantalejo [&lt;51] &gt;+34921520564</name><Point><coordinates>-3.91058,41.25688,0</coordinates></Point></Placemark><Placemark><name>Riaza 1a - Riaza (01/01-31/12) &gt;+34921550580 -CCA</name><Point><coordinates>-3.4974,41.26974,0</coordinates></Point></Placemark><Placemark><name>Estrella de Mar - Castelldefels &gt;+34936330784 -BD_ES-D.030</name><Point><coordinates>1.99917,41.26977,0</coordinates></Point></Placemark><Placemark><name>3 Estrellas - Gava (15/03-15/10) &gt;+34936330637 -CCA</name><Point><coordinates>2.04271,41.27234,0</coordinates></Point></Placemark><Placemark><name>El Calonge - Lastras De Cuellar &gt;+34921169214</name><Point><coordinates>-4.09587,41.27886,0</coordinates></Point></Placemark><Placemark><name>Lake Caspe - Caspe (01/03-09/11) &gt;+34976634174 -CCA</name><Point><coordinates>0.06214,41.2926,0</coordinates></Point></Placemark><Placemark><name>Prades - Prades (01/01-31/12) &gt;+34977868270 -CCA</name><Point><coordinates>0.97984,41.31219,0</coordinates></Point></Placemark><Placemark><name>Sierra Pela - Retortillo De Soria &gt;+34975183576</name><Point><coordinates>-2.98132,41.31238,0</coordinates></Point></Placemark><Placemark><name>Montsant Park - Ulldemolins &gt;+34977561708</name><Point><coordinates>0.88104,41.31579,0</coordinates></Point></Placemark><Placemark><name>Los Arribes - Cibanal de Sayago &gt;+34980619831</name><Point><coordinates>-6.30622,41.32001,0</coordinates></Point></Placemark><Placemark><name>Serra de Prades 1a - Vilanova de Prades (01/01-31/12) &gt;+34977869050 -CCpg668</name><Point><coordinates>0.95843,41.34975,0</coordinates></Point></Placemark><Placemark><name>Bellavista - Mequinenza &gt;+34974345287</name><Point><coordinates>0.31369,41.37683,0</coordinates></Point></Placemark><Placemark><name>Montblanc Park 1a - Montblanc (01/04-30/11) &gt;+34977862544</name><Point><coordinates>1.18549,41.37703,0</coordinates></Point></Placemark><Placemark><name>Octogesa 1a - Mequinenza [&lt;51] (15/03-31/10) &gt;+34974464431</name><Point><coordinates>0.30541,41.37806,0</coordinates></Point></Placemark><Placemark><name>Savinan 3a - Savinan (01/01-31/12) &gt;+34976825423</name><Point><coordinates>-1.55768,41.44678,0</coordinates></Point></Placemark><Placemark><name>Vilademager - La Llacuna &gt;+34938976014</name><Point><coordinates>1.55246,41.47396,0</coordinates></Point></Placemark><Placemark><name>Masnou 2a - El Masnou (01/01-31/12) &gt;+34935551503</name><Point><coordinates>2.30392,41.47526,0</coordinates></Point></Placemark><Placemark><name>El Astral - Tordesillas (01/01-31/12) &gt;+34983770953 -CCpg639</name><Point><coordinates>-5.00511,41.49581,0</coordinates></Point></Placemark><Placemark><name>Fraga 2a - Fraga (01/01-31/12) &gt;+34974345212</name><Point><coordinates>0.3534,41.5167,0</coordinates></Point></Placemark><Placemark><name>El Vedado 1a - Vallromanes (01/03-31/10) &gt;+34935729026</name><Point><coordinates>2.29319,41.52273,0</coordinates></Point></Placemark><Placemark><name>Barcelona - Can Sanc-Mataro (28/02-02/11) &gt;+34937904720 -CCA</name><Point><coordinates>2.48344,41.55075,0</coordinates></Point></Placemark><Placemark><name>El Toro Azul - Arenys De Mar &gt;+34937921243</name><Point><coordinates>2.56768,41.58339,0</coordinates></Point></Placemark><Placemark><name>Marcos - Arenys De Mar &gt;+34937921238</name><Point><coordinates>2.56834,41.58375,0</coordinates></Point></Placemark><Placemark><name>El Carlitos - Arenys De Mar &gt;+34937951355</name><Point><coordinates>2.56857,41.58438,0</coordinates></Point></Placemark><Placemark><name>Victoria - Canet De Mar &gt;+34937940839</name><Point><coordinates>2.57301,41.58517,0</coordinates></Point></Placemark><Placemark><name>Riberduero - Penafiel [&lt;51] &gt;+34983881637</name><Point><coordinates>-4.13487,41.58977,0</coordinates></Point></Placemark><Placemark><name>Costa Dorada - Canet De Mar &gt;+34937954559</name><Point><coordinates>2.58944,41.58993,0</coordinates></Point></Placemark><Placemark><name>El Globo Rojo - Canet De Mar (12/04-28/09) &gt;+34937941143 -CCA</name><Point><coordinates>2.59185,41.59089,0</coordinates></Point></Placemark><Placemark><name>Kanguro - Sant Pol De Mar &gt;+34937600205</name><Point><coordinates>2.59986,41.59311,0</coordinates></Point></Placemark><Placemark><name>La Maresma - Sant Pol De Mar &gt;+34937600356</name><Point><coordinates>2.60862,41.60467,0</coordinates></Point></Placemark><Placemark><name>Roca Grossa - Calella (01/04-07/10) &gt;+34937691297 -CCA</name><Point><coordinates>2.63892,41.60632,0</coordinates></Point></Placemark><Placemark><name>Botanic Bona Vista Kim - Calella &gt;+34937692488</name><Point><coordinates>2.64019,41.60769,0</coordinates></Point></Placemark><Placemark><name>El Far - Calella &gt;+34937690967</name><Point><coordinates>2.6468,41.61051,0</coordinates></Point></Placemark><Placemark><name>Caballo De Mar - Pineda De Mar (04/04-12/10) &gt;+34937671706 -CCpg663-CCA-BD_ES-E.101</name><Point><coordinates>2.67676,41.61781,0</coordinates></Point></Placemark><Placemark><name>La Verneda - Sant Cebria De Vallalta &gt;+34937631185</name><Point><coordinates>2.60502,41.61802,0</coordinates></Point></Placemark><Placemark><name>Bell Sol - Pineda De Mar (12/04-04/10) &gt;+34937671778 -CCA</name><Point><coordinates>2.67902,41.61833,0</coordinates></Point></Placemark><Placemark><name>El Camell - Pineda De Mar &gt;+34937671520</name><Point><coordinates>2.68147,41.62118,0</coordinates></Point></Placemark><Placemark><name>Enmar - Pineda De Mar (10/03-31/10) &gt;+34937671730 -CCA</name><Point><coordinates>2.68645,41.62206,0</coordinates></Point></Placemark><Placemark><name>Oasis - Santa Susana &gt;+34937673403</name><Point><coordinates>2.71362,41.62953,0</coordinates></Point></Placemark><Placemark><name>El Pinar - Santa Susana &gt;+34937678558</name><Point><coordinates>2.7174,41.63029,0</coordinates></Point></Placemark><Placemark><name>Bon Repos - Santa Susana &gt;+34937678475</name><Point><coordinates>2.72002,41.63128,0</coordinates></Point></Placemark><Placemark><name>Ciudad de Zaragoza - Zaragoza (01/01-31/12) &gt;+34876768763</name><Point><coordinates>-0.94288,41.6379,0</coordinates></Point></Placemark><Placemark><name>El Pasqualet - Caldes De Montbui &gt;+34938654695</name><Point><coordinates>2.15655,41.64432,0</coordinates></Point></Placemark><Placemark><name>La Conca - Malgrat de Mar &gt;+34937619120</name><Point><coordinates>2.76297,41.64694,0</coordinates></Point></Placemark><Placemark><name>Del Mar - Malgrat de Mar (28/03-12/10) &gt;+34937653767 -CCA</name><Point><coordinates>2.76473,41.64723,0</coordinates></Point></Placemark><Placemark><name>El Pla De Mar - Malgrat De Mar &gt;+34937611003</name><Point><coordinates>2.76558,41.64724,0</coordinates></Point></Placemark><Placemark><name>Blau Mar - Malgrat De Mar &gt;+34607864225</name><Point><coordinates>2.76738,41.64736,0</coordinates></Point></Placemark><Placemark><name>Mar Y Sol - Malgrat De Mar &gt;+34937619793</name><Point><coordinates>2.76838,41.64759,0</coordinates></Point></Placemark><Placemark><name>Els Pins - Malgrat De Mar (01/04-30/11) &gt;+34937653238 -CCA</name><Point><coordinates>2.76999,41.64803,0</coordinates></Point></Placemark><Placemark><name>Aidamar - Malgrat De Mar &gt;+34690605901</name><Point><coordinates>2.77186,41.64847,0</coordinates></Point></Placemark><Placemark><name>Les Nacions - Malgrat De Mar &gt;+34937619065</name><Point><coordinates>2.77399,41.64925,0</coordinates></Point></Placemark><Placemark><name>La Tordera - Malgrat De Mar (18/05-21/09) &gt;+34937612778 -CCA</name><Point><coordinates>2.77545,41.65235,0</coordinates></Point></Placemark><Placemark><name>L'Esplanada - Santa Eulalia De Roncana &gt;+34938448401</name><Point><coordinates>2.23544,41.65348,0</coordinates></Point></Placemark><Placemark><name>El Pinar - Blanes &gt;+34972331083 -BD_ES-E.090</name><Point><coordinates>2.77829,41.65474,0</coordinates></Point></Placemark><Placemark><name>Vora Mar - Blanes &gt;+34972331805</name><Point><coordinates>2.77895,41.6565,0</coordinates></Point></Placemark><Placemark><name>Bella Terra - Blanes &gt;+34972348023 -CCA</name><Point><coordinates>2.77934,41.65815,0</coordinates></Point></Placemark><Placemark><name>Blanes - Blanes &gt;+34972331591</name><Point><coordinates>2.77977,41.65924,0</coordinates></Point></Placemark><Placemark><name>Roca - Blanes &gt;+34972330540</name><Point><coordinates>2.77929,41.6614,0</coordinates></Point></Placemark><Placemark><name>Solmar - Blanes (05/04-12/10) &gt;+34972348034 -CCA-BD_ES-E.092</name><Point><coordinates>2.78035,41.662,0</coordinates></Point></Placemark><Placemark><name>Cavall De Mar - Blanes &gt;+34972331349</name><Point><coordinates>2.78046,41.66237,0</coordinates></Point></Placemark><Placemark><name>Masia Can Font - Sant Celoni &gt;+34937445037</name><Point><coordinates>2.4839,41.66317,0</coordinates></Point></Placemark><Placemark><name>S'Abanell - Blanes &gt;+34972331809</name><Point><coordinates>2.78257,41.66392,0</coordinates></Point></Placemark><Placemark><name>Reina Maris - Blanes &gt;+34972331531</name><Point><coordinates>2.77983,41.66469,0</coordinates></Point></Placemark><Placemark><name>La Masia - Blanes (15/01-10/12) &gt;+34972331013 -CCpg662</name><Point><coordinates>2.77847,41.66589,0</coordinates></Point></Placemark><Placemark><name>La Sardana - Blanes &gt;+34972337801</name><Point><coordinates>2.77916,41.67044,0</coordinates></Point></Placemark><Placemark><name>Raco d'En Pep - Vilanova de la Barca &gt;+34973190047</name><Point><coordinates>0.7165,41.67969,0</coordinates></Point></Placemark><Placemark><name>Les Mimoses - Blanes &gt;+34972355081</name><Point><coordinates>2.79681,41.68877,0</coordinates></Point></Placemark><Placemark><name>Tucan - Lloret De Mar (05/04-28/09) &gt;+34972369965 -CCA-BD_ES-E.085</name><Point><coordinates>2.82207,41.69708,0</coordinates></Point></Placemark><Placemark><name>Santa Elena Ciutat - Lloret De Mar &gt;+34972364009</name><Point><coordinates>2.82648,41.69858,0</coordinates></Point></Placemark><Placemark><name>Costajan 1a - Aranda de Duero (01/01-31/12) &gt;+34947502070</name><Point><coordinates>-3.68516,41.7022,0</coordinates></Point></Placemark><Placemark><name>Lloret Blau - Lloret De Mar (30/04-28/09) &gt;+34972365483 -CCA</name><Point><coordinates>2.84293,41.7056,0</coordinates></Point></Placemark><Placemark><name>Canyelles - Lloret De Mar &gt;+34972364504</name><Point><coordinates>2.8808,41.70731,0</coordinates></Point></Placemark><Placemark><name>Cala Llevado - Tossa De Mar (14/04-28/09) &gt;+34972340314 -CCA-BD_ES-E.080</name><Point><coordinates>2.90652,41.71315,0</coordinates></Point></Placemark><Placemark><name>l'Illa - Sant Quirze De Safaja &gt;+34938662526</name><Point><coordinates>2.16908,41.72294,0</coordinates></Point></Placemark><Placemark><name>Tossa - Tossa De Mar &gt;+34972340547</name><Point><coordinates>2.89239,41.72886,0</coordinates></Point></Placemark><Placemark><name>Can Marti   - Tossa De Mar &gt;+34972340851</name><Point><coordinates>2.9259,41.72894,0</coordinates></Point></Placemark><Placemark><name>Canon Del Rio Lobos - Ucero &gt;+34975363565</name><Point><coordinates>-3.04806,41.72917,0</coordinates></Point></Placemark><Placemark><name>Turismar - Tossa De Mar &gt;+34972340475</name><Point><coordinates>2.91486,41.73051,0</coordinates></Point></Placemark><Placemark><name>Vila Village - San feliu de Buixalleu &gt;+34972874386</name><Point><coordinates>2.60392,41.73442,0</coordinates></Point></Placemark><Placemark><name>La Tatgera - Talamanca [&lt;51] &gt;+34938310016</name><Point><coordinates>1.93212,41.73671,0</coordinates></Point></Placemark><Placemark><name>Pola - Tossa De Mar (24/05-29/09) &gt;+34972341050</name><Point><coordinates>2.94445,41.73677,0</coordinates></Point></Placemark><Placemark><name>Fuente de La Teja - Soria &gt;+34975222967</name><Point><coordinates>-2.48466,41.74586,0</coordinates></Point></Placemark><Placemark><name>Riera de Ciuret 3a - Fogars de Monyclus (01/01-31/12) &gt;+34938475129</name><Point><coordinates>2.43523,41.7531,0</coordinates></Point></Placemark><Placemark><name>Fontmartina - Fogars De Montclus &gt;+34938475163</name><Point><coordinates>2.42849,41.75696,0</coordinates></Point></Placemark><Placemark><name>Les Piscines - Montseny &gt;+34938473070</name><Point><coordinates>2.3893,41.75916,0</coordinates></Point></Placemark><Placemark><name>L'Avenco - Tagamanent &gt;+34937445084</name><Point><coordinates>2.25998,41.76505,0</coordinates></Point></Placemark><Placemark><name>Masia Can Cervera - Montseny [&lt;51] &gt;+34938473066</name><Point><coordinates>2.39107,41.77003,0</coordinates></Point></Placemark><Placemark><name>Sant Pol - Sant Feliu De Guixols (11/04-02/11) &gt;+34972327269 -CCA</name><Point><coordinates>3.04122,41.78633,0</coordinates></Point></Placemark><Placemark><name>Les Illes - Montseny &gt;+34938473204</name><Point><coordinates>2.413,41.78912,0</coordinates></Point></Placemark><Placemark><name>Pinell - Platja D'Aro (18/04-30/09) &gt;+34972818123 -CCA</name><Point><coordinates>3.05556,41.80389,0</coordinates></Point></Placemark><Placemark><name>Santa Cristina - Santa Cristina D´Aro &gt;+34972837753</name><Point><coordinates>3.0095,41.80454,0</coordinates></Point></Placemark><Placemark><name>Vall D'Or - Platja D'Aro &gt;+34972817585</name><Point><coordinates>3.06346,41.80473,0</coordinates></Point></Placemark><Placemark><name>Cubillas 1a - Cubillas de Santa Marta (01/01-31/12) &gt;+34983585002</name><Point><coordinates>-4.58718,41.80517,0</coordinates></Point></Placemark><Placemark><name>Castell D'Aro - Castell - Platja d`Aro &gt;+34972819699</name><Point><coordinates>3.03161,41.80622,0</coordinates></Point></Placemark><Placemark><name>Riudarenes - Riudarenes &gt;+34972856408</name><Point><coordinates>2.68626,41.80688,0</coordinates></Point></Placemark><Placemark><name>Puigsagordi - Centelles &gt;+34938811180</name><Point><coordinates>2.2112,41.8071,0</coordinates></Point></Placemark><Placemark><name>Sierra de Alcubierre - Alcubierre [&lt;51] &gt;+34974574529</name><Point><coordinates>-0.45313,41.80922,0</coordinates></Point></Placemark><Placemark><name>Riembau   - Platja D'Aro &gt;+34972817123 -CCA</name><Point><coordinates>3.04689,41.80993,0</coordinates></Point></Placemark><Placemark><name>Mas Sant Josep - Sant Cristina D'Aro &gt;+34972835108 -BD_ES-E.050</name><Point><coordinates>3.01829,41.81126,0</coordinates></Point></Placemark><Placemark><name>Valldaro - Platja d'Aro (11/04-28/09) &gt;+34972817515 -CCpg661-CCA</name><Point><coordinates>3.04484,41.81464,0</coordinates></Point></Placemark><Placemark><name>El Concurso - Abejar &gt;+34975373361</name><Point><coordinates>-2.78919,41.81646,0</coordinates></Point></Placemark><Placemark><name>Veruela De Moncayo - Vera De Moncayo &gt;+34639349294 -CCA</name><Point><coordinates>-1.6923,41.8189,0</coordinates></Point></Placemark><Placemark><name>Cala Sa Cova   - Platja D'Aro &gt;+34972818234</name><Point><coordinates>3.07478,41.82417,0</coordinates></Point></Placemark><Placemark><name>Ridaura - Llagostera (01/05-28/09) &gt;+34972830265 -CCA</name><Point><coordinates>2.95823,41.82768,0</coordinates></Point></Placemark><Placemark><name>Cala Gogo - Calonge (16/04-14/09) &gt;+34972651564 -CCA</name><Point><coordinates>3.08364,41.83041,0</coordinates></Point></Placemark><Placemark><name>Internacional De Calonge - Calonge &gt;+34972651233</name><Point><coordinates>3.08459,41.83248,0</coordinates></Point></Placemark><Placemark><name>Treumal - Sant Antoni De Calonge &gt;+34972651095</name><Point><coordinates>3.08717,41.83691,0</coordinates></Point></Placemark><Placemark><name>Fuente Del Boton - Navaleno &gt;+34975374338</name><Point><coordinates>-3.01219,41.83694,0</coordinates></Point></Placemark>